{
"type": "FeatureCollection",
"name": "stations",
"features": [
{ "type": "Feature", "properties": { "name": "Reykjavík", "type": "Manned synoptic station", "station_number": "1", "wmo_number": "4030", "abbreviation": "rvk", "region": "Faxaflói", "elevation": "52.0", "start_year": "1920", "owner": "Veðurstofa Íslands" }, "geometry": { "type": "Point", "coordinates": [ -21.9028, 64.1275 ] } },
{ "type": "Feature", "properties": { "name": "Stykkishólmur", "type": "Manned synoptic station", "station_number": "178", "wmo_number": "4013", "abbreviation": "sth", "region": "Breiðafjörður", "elevation": "13.180000305175781", "start_year": "1845", "owner": "Veðurstofa Íslands" }, "geometry": { "type": "Point", "coordinates": [ -22.7339, 65.074 ] } },
{ "type": "Feature", "properties": { "name": "Ásgarður", "type": "Manned synoptic station", "station_number": "195", "wmo_number": "4027", "abbreviation": "asg", "region": "Breiðafjörður", "elevation": "50.0", "start_year": "1992", "owner": "Veðurstofa Íslands" }, "geometry": { "type": "Point", "coordinates": [ -21.7543, 65.2297 ] } },
{ "type": "Feature", "properties": { "name": "Hólar í Dýrafirði", "type": "Manned synoptic station", "station_number": "234", "wmo_number": "4007", "abbreviation": "hold", "region": "West fjords", "elevation": "30.0", "start_year": "1983", "owner": "Veðurstofa Íslands" }, "geometry": { "type": "Point", "coordinates": [ -23.5641, 65.8679 ] } },
{ "type": "Feature", "properties": { "name": "Litla-Ávík", "type": "Manned synoptic station", "station_number": "293", "wmo_number": "4031", "abbreviation": "ltav", "region": "North West", "elevation": "15.0", "start_year": "1995", "owner": "Veðurstofa Íslands" }, "geometry": { "type": "Point", "coordinates": [ -21.425, 66.0213 ] } },
{ "type": "Feature", "properties": { "name": "Sauðanesviti", "type": "Manned synoptic station", "station_number": "400", "wmo_number": "4059", "abbreviation": "sdnv", "region": "North West", "elevation": "30.0", "start_year": "1990", "owner": "Veðurstofa Íslands" }, "geometry": { "type": "Point", "coordinates": [ -18.9534, 66.1852 ] } },
{ "type": "Feature", "properties": { "name": "Akureyri", "type": "Manned synoptic station", "station_number": "422", "wmo_number": "4063", "abbreviation": "ak", "region": "North East", "elevation": "23.0", "start_year": "1881", "owner": "Veðurstofa Íslands" }, "geometry": { "type": "Point", "coordinates": [ -18.1002, 65.6856 ] } },
{ "type": "Feature", "properties": { "name": "Grímsstaðir", "type": "Manned synoptic station", "station_number": "495", "wmo_number": "4073", "abbreviation": "grst", "region": "North East", "elevation": "384.0", "start_year": "1907", "owner": "Veðurstofa Íslands" }, "geometry": { "type": "Point", "coordinates": [ -16.1208, 65.6423 ] } },
{ "type": "Feature", "properties": { "name": "Miðfjarðarnes", "type": "Manned synoptic station", "station_number": "515", "wmo_number": "4083", "abbreviation": "mdfj", "region": "Eastern coastal areas", "elevation": "25.0", "start_year": "1999", "owner": "Veðurstofa Íslands" }, "geometry": { "type": "Point", "coordinates": [ -15.0792, 66.0659 ] } },
{ "type": "Feature", "properties": { "name": "Skjaldþingsstaðir", "type": "Manned synoptic station", "station_number": "527", "wmo_number": "4085", "abbreviation": "skjl", "region": "Eastern coastal areas", "elevation": "42.20000076293945", "start_year": "1994", "owner": "Veðurstofa Íslands" }, "geometry": { "type": "Point", "coordinates": [ -14.8211, 65.7027 ] } },
{ "type": "Feature", "properties": { "name": "Egilsstaðaflugvöllur", "type": "Synoptic station based on metar data and automated observations", "station_number": "571", "wmo_number": "4089", "abbreviation": "egflu", "region": "Eastern coastal areas", "elevation": "23.0", "start_year": "2001", "owner": "Veðurstofa Íslands" }, "geometry": { "type": "Point", "coordinates": [ -14.4025, 65.283 ] } },
{ "type": "Feature", "properties": { "name": "Dalatangi", "type": "Manned synoptic station", "station_number": "620", "wmo_number": "4097", "abbreviation": "dt", "region": "East fjords", "elevation": "9.0", "start_year": "1938", "owner": "Veðurstofa Íslands" }, "geometry": { "type": "Point", "coordinates": [ -13.5759, 65.2682 ] } },
{ "type": "Feature", "properties": { "name": "Vatnsskarðshólar", "type": "Manned synoptic station", "station_number": "802", "wmo_number": "4058", "abbreviation": "vtns", "region": "South", "elevation": "20.0", "start_year": "1978", "owner": "Veðurstofa Íslands" }, "geometry": { "type": "Point", "coordinates": [ -19.183, 63.4236 ] } },
{ "type": "Feature", "properties": { "name": "Hjarðarland", "type": "Manned synoptic station", "station_number": "931", "wmo_number": "4042", "abbreviation": "hjrl", "region": "South", "elevation": "89.0", "start_year": "1990", "owner": "Veðurstofa Íslands" }, "geometry": { "type": "Point", "coordinates": [ -20.3309, 64.2504 ] } },
{ "type": "Feature", "properties": { "name": "Keflavíkurflugvöllur", "type": "Manned synoptic station", "station_number": "990", "wmo_number": "4018", "abbreviation": "kvk", "region": "Faxaflói", "elevation": "47.0", "start_year": "1952", "owner": "Veðurstofa Íslands" }, "geometry": { "type": "Point", "coordinates": [ -22.5876, 63.9747 ] } },
{ "type": "Feature", "properties": { "name": "Keflavíkurflugvöllur", "type": "Automated observational station", "station_number": "1350", "wmo_number": "4118", "abbreviation": "kefla", "region": "Faxaflói", "elevation": "50.900001525878906", "start_year": "2008", "owner": "Veðurstofa Íslands" }, "geometry": { "type": "Point", "coordinates": [ -22.6005, 63.9829 ] } },
{ "type": "Feature", "properties": { "name": "Grindavík", "type": "Automated observational station", "station_number": "1361", "wmo_number": "4910", "abbreviation": "grvik", "region": "South", "elevation": "9.300000190734863", "start_year": "2008", "owner": "Veðurstofa Íslands" }, "geometry": { "type": "Point", "coordinates": [ -22.417, 63.8438 ] } },
{ "type": "Feature", "properties": { "name": "Eyrarbakki", "type": "Automated observational station", "station_number": "1395", "wmo_number": "4038", "abbreviation": "eyrar", "region": "South", "elevation": "3.0", "start_year": "2005", "owner": "Veðurstofa Íslands" }, "geometry": { "type": "Point", "coordinates": [ -21.1602, 63.8692 ] } },
{ "type": "Feature", "properties": { "name": "Garðskagaviti", "type": "Automated observational station", "station_number": "1453", "wmo_number": "4116", "abbreviation": "garsk", "region": "Faxaflói", "elevation": "4.0", "start_year": "1995", "owner": "Vegagerðin" }, "geometry": { "type": "Point", "coordinates": [ -22.6893, 64.0817 ] } },
{ "type": "Feature", "properties": { "name": "Reykjavík Hljómskálagarður", "type": "Automated observational station", "station_number": "1469", "wmo_number": "-99", "abbreviation": "hljom", "region": "Faxaflói", "elevation": "4.5", "start_year": "2022", "owner": "Veðurstofa Íslands" }, "geometry": { "type": "Point", "coordinates": [ -21.9436, 64.1411 ] } },
{ "type": "Feature", "properties": { "name": "Reykjavík Háahlíð", "type": "Automated observational station", "station_number": "1470", "wmo_number": "-99", "abbreviation": "reith", "region": "Faxaflói", "elevation": "60.20000076293945", "start_year": "2021", "owner": "Veðurstofa Íslands" }, "geometry": { "type": "Point", "coordinates": [ -21.9082, 64.1288 ] } },
{ "type": "Feature", "properties": { "name": "Seltjarnarnes - Suðurnes", "type": "Automated observational station", "station_number": "1471", "wmo_number": "-99", "abbreviation": "selsu", "region": "Faxaflói", "elevation": "4.5", "start_year": "2019", "owner": "Veðurstofa Íslands" }, "geometry": { "type": "Point", "coordinates": [ -22.0325, 64.1545 ] } },
{ "type": "Feature", "properties": { "name": "Kópavogur - Fossvogsdalur", "type": "Automated observational station", "station_number": "1472", "wmo_number": "-99", "abbreviation": "fosvd", "region": "Faxaflói", "elevation": "19.0", "start_year": "2021", "owner": "Veðurstofa Íslands" }, "geometry": { "type": "Point", "coordinates": [ -21.8617, 64.1163 ] } },
{ "type": "Feature", "properties": { "name": "Straumsvík", "type": "Automated observational station", "station_number": "1473", "wmo_number": "4124", "abbreviation": "strau", "region": "Faxaflói", "elevation": "7.0", "start_year": "2001", "owner": "Veðurstofa Íslands" }, "geometry": { "type": "Point", "coordinates": [ -22.0404, 64.0438 ] } },
{ "type": "Feature", "properties": { "name": "Garðabær - Urriðaholt", "type": "Automated observational station", "station_number": "1474", "wmo_number": "-99", "abbreviation": "uholt", "region": "Faxaflói", "elevation": "37.0", "start_year": "2019", "owner": "Veðurstofa Íslands" }, "geometry": { "type": "Point", "coordinates": [ -21.9107, 64.0712 ] } },
{ "type": "Feature", "properties": { "name": "Reykjavík", "type": "Automated observational station", "station_number": "1475", "wmo_number": "4130", "abbreviation": "reitr", "region": "Faxaflói", "elevation": "52.0", "start_year": "1993", "owner": "Veðurstofa Íslands" }, "geometry": { "type": "Point", "coordinates": [ -21.902, 64.1275 ] } },
{ "type": "Feature", "properties": { "name": "Reykjavíkurflugvöllur", "type": "Automated observational station", "station_number": "1477", "wmo_number": "4838", "abbreviation": "rflug", "region": "Faxaflói", "elevation": "12.0", "start_year": "2000", "owner": "Veðurstofa Íslands" }, "geometry": { "type": "Point", "coordinates": [ -21.9407, 64.1284 ] } },
{ "type": "Feature", "properties": { "name": "Reykjavík Geirsnef", "type": "Automated observational station", "station_number": "1478", "wmo_number": "-99", "abbreviation": "genef", "region": "Faxaflói", "elevation": "4.0", "start_year": "2019", "owner": "Veðurstofa Íslands" }, "geometry": { "type": "Point", "coordinates": [ -21.8392, 64.1292 ] } },
{ "type": "Feature", "properties": { "name": "Geldinganes", "type": "Automated observational station", "station_number": "1480", "wmo_number": "4880", "abbreviation": "geldn", "region": "Faxaflói", "elevation": "35.0", "start_year": "2004", "owner": "Veðurstofa Íslands" }, "geometry": { "type": "Point", "coordinates": [ -21.8038, 64.1678 ] } },
{ "type": "Feature", "properties": { "name": "Hólmsheiði", "type": "Automated observational station", "station_number": "1481", "wmo_number": "4920", "abbreviation": "holms", "region": "Faxaflói", "elevation": "130.0", "start_year": "2006", "owner": "Veðurstofa Íslands" }, "geometry": { "type": "Point", "coordinates": [ -21.6864, 64.1085 ] } },
{ "type": "Feature", "properties": { "name": "Reykjavík Víðidalur", "type": "Automated observational station", "station_number": "1482", "wmo_number": "-99", "abbreviation": "vidal", "region": "Faxaflói", "elevation": "71.0", "start_year": "2018", "owner": "Veðurstofa Íslands" }, "geometry": { "type": "Point", "coordinates": [ -21.7971, 64.1035 ] } },
{ "type": "Feature", "properties": { "name": "Bláfjöll", "type": "Automated observational station", "station_number": "1486", "wmo_number": "4138", "abbreviation": "blafj", "region": "Faxaflói", "elevation": "530.0", "start_year": "1997", "owner": "Veðurstofa Íslands" }, "geometry": { "type": "Point", "coordinates": [ -21.6661, 63.969 ] } },
{ "type": "Feature", "properties": { "name": "Bláfjallaskáli", "type": "Automated observational station", "station_number": "1487", "wmo_number": "4852", "abbreviation": "blafs", "region": "Faxaflói", "elevation": "530.0", "start_year": "2001", "owner": "Veðurstofa Íslands" }, "geometry": { "type": "Point", "coordinates": [ -21.6497, 63.9831 ] } },
{ "type": "Feature", "properties": { "name": "Hellisskarð", "type": "Automated observational station", "station_number": "1490", "wmo_number": "4862", "abbreviation": "hells", "region": "Faxaflói", "elevation": "380.0", "start_year": "2001", "owner": "Veðurstofa Íslands" }, "geometry": { "type": "Point", "coordinates": [ -21.3665, 64.0333 ] } },
{ "type": "Feature", "properties": { "name": "Ölkelduháls", "type": "Automated observational station", "station_number": "1493", "wmo_number": "4864", "abbreviation": "olkel", "region": "Faxaflói", "elevation": "360.0", "start_year": "2001", "owner": "Veðurstofa Íslands" }, "geometry": { "type": "Point", "coordinates": [ -21.2532, 64.0553 ] } },
{ "type": "Feature", "properties": { "name": "Skarðsmýrarfjall", "type": "Automated observational station", "station_number": "1496", "wmo_number": "4922", "abbreviation": "skamy", "region": "Faxaflói", "elevation": "583.5", "start_year": "2006", "owner": "Veðurstofa Íslands" }, "geometry": { "type": "Point", "coordinates": [ -21.3469, 64.0567 ] } },
{ "type": "Feature", "properties": { "name": "Skrauthólar", "type": "Automated observational station", "station_number": "1578", "wmo_number": "4818", "abbreviation": "skrau", "region": "Faxaflói", "elevation": "20.0", "start_year": "2001", "owner": "Veðurstofa Íslands" }, "geometry": { "type": "Point", "coordinates": [ -21.8046, 64.2318 ] } },
{ "type": "Feature", "properties": { "name": "Skálafell", "type": "Automated observational station", "station_number": "1590", "wmo_number": "4136", "abbreviation": "sfell", "region": "Faxaflói", "elevation": "771.0", "start_year": "1995", "owner": "Veðurstofa Íslands" }, "geometry": { "type": "Point", "coordinates": [ -21.4633, 64.2405 ] } },
{ "type": "Feature", "properties": { "name": "Þingvellir", "type": "Automated observational station", "station_number": "1596", "wmo_number": "4142", "abbreviation": "tingv", "region": "South", "elevation": "110.0", "start_year": "1996", "owner": "Veðurstofa Íslands" }, "geometry": { "type": "Point", "coordinates": [ -21.0875, 64.2807 ] } },
{ "type": "Feature", "properties": { "name": "Skarðsheiði Miðfitjahóll", "type": "Automated observational station", "station_number": "1679", "wmo_number": "4904", "abbreviation": "skahe", "region": "Faxaflói", "elevation": "471.29998779296875", "start_year": "2009", "owner": "Landsnet" }, "geometry": { "type": "Point", "coordinates": [ -21.7621, 64.4902 ] } },
{ "type": "Feature", "properties": { "name": "Þyrill", "type": "Automated observational station", "station_number": "1685", "wmo_number": "4806", "abbreviation": "tyril", "region": "Faxaflói", "elevation": "61.5", "start_year": "2003", "owner": "Veðurstofa Íslands" }, "geometry": { "type": "Point", "coordinates": [ -21.4169, 64.3877 ] } },
{ "type": "Feature", "properties": { "name": "Botnsheiði", "type": "Automated observational station", "station_number": "1689", "wmo_number": "4814", "abbreviation": "botns", "region": "Faxaflói", "elevation": "500.5", "start_year": "2001", "owner": "Landsnet" }, "geometry": { "type": "Point", "coordinates": [ -21.4034, 64.4529 ] } },
{ "type": "Feature", "properties": { "name": "Hvanneyri", "type": "Automated observational station", "station_number": "1779", "wmo_number": "4134", "abbreviation": "hveyr", "region": "Faxaflói", "elevation": "12.399999618530273", "start_year": "1997", "owner": "Veðurstofa Íslands" }, "geometry": { "type": "Point", "coordinates": [ -21.7649, 64.5622 ] } },
{ "type": "Feature", "properties": { "name": "Stafholtsey", "type": "Automated observational station", "station_number": "1781", "wmo_number": "4034", "abbreviation": "stfey", "region": "Faxaflói", "elevation": "14.0", "start_year": "2018", "owner": "Veðurstofa Íslands" }, "geometry": { "type": "Point", "coordinates": [ -21.5893, 64.643 ] } },
{ "type": "Feature", "properties": { "name": "Fíflholt á Mýrum", "type": "Automated observational station", "station_number": "1868", "wmo_number": "4914", "abbreviation": "fiflh", "region": "Faxaflói", "elevation": "55.70000076293945", "start_year": "2006", "owner": "Veðurstofa Íslands" }, "geometry": { "type": "Point", "coordinates": [ -22.1473, 64.6943 ] } },
{ "type": "Feature", "properties": { "name": "Gufuskálar", "type": "Automated observational station", "station_number": "1919", "wmo_number": "4104", "abbreviation": "gufus", "region": "Breiðafjörður", "elevation": "7.0", "start_year": "1994", "owner": "Veðurstofa Íslands" }, "geometry": { "type": "Point", "coordinates": [ -23.9316, 64.9041 ] } },
{ "type": "Feature", "properties": { "name": "Ólafsvík", "type": "Automated observational station", "station_number": "1924", "wmo_number": "4106", "abbreviation": "olvik", "region": "Breiðafjörður", "elevation": "19.0", "start_year": "2000", "owner": "Veðurstofa Íslands - Ofanflóð" }, "geometry": { "type": "Point", "coordinates": [ -23.7162, 64.8957 ] } },
{ "type": "Feature", "properties": { "name": "Bláfeldur", "type": "Automated observational station", "station_number": "1936", "wmo_number": "4110", "abbreviation": "blafe", "region": "Faxaflói", "elevation": "17.700000762939453", "start_year": "2003", "owner": "Veðurstofa Íslands" }, "geometry": { "type": "Point", "coordinates": [ -23.3018, 64.8393 ] } },
{ "type": "Feature", "properties": { "name": "Grundarfjörður", "type": "Automated observational station", "station_number": "1938", "wmo_number": "4108", "abbreviation": "grufj", "region": "Breiðafjörður", "elevation": "17.399999618530273", "start_year": "2003", "owner": "Veðurstofa Íslands" }, "geometry": { "type": "Point", "coordinates": [ -23.2513, 64.9213 ] } },
{ "type": "Feature", "properties": { "name": "Stykkishólmur", "type": "Automated observational station", "station_number": "2050", "wmo_number": "4122", "abbreviation": "stykk", "region": "Breiðafjörður", "elevation": "12.399999618530273", "start_year": "2002", "owner": "Veðurstofa Íslands" }, "geometry": { "type": "Point", "coordinates": [ -22.7324, 65.0717 ] } },
{ "type": "Feature", "properties": { "name": "Ásgarður", "type": "Automated observational station", "station_number": "2175", "wmo_number": "4133", "abbreviation": "asgar", "region": "Breiðafjörður", "elevation": "47.900001525878906", "start_year": "2003", "owner": "Veðurstofa Íslands" }, "geometry": { "type": "Point", "coordinates": [ -21.7543, 65.2297 ] } },
{ "type": "Feature", "properties": { "name": "Reykir í Hrútafirði", "type": "Automated observational station", "station_number": "2197", "wmo_number": "-99", "abbreviation": "rhrut", "region": "North West", "elevation": "9.800000190734863", "start_year": "2003", "owner": "Veðurstofa Íslands" }, "geometry": { "type": "Point", "coordinates": [ -21.0978, 65.2543 ] } },
{ "type": "Feature", "properties": { "name": "Reykhólar", "type": "Automated observational station", "station_number": "2266", "wmo_number": "4129", "abbreviation": "rehol", "region": "Breiðafjörður", "elevation": "6.400000095367432", "start_year": "2004", "owner": "Veðurstofa Íslands - Ofanflóð" }, "geometry": { "type": "Point", "coordinates": [ -22.2056, 65.4377 ] } },
{ "type": "Feature", "properties": { "name": "Bjargtangar", "type": "Automated observational station", "station_number": "2304", "wmo_number": "4101", "abbreviation": "bjarg", "region": "Breiðafjörður", "elevation": "35.0", "start_year": "1994", "owner": "Vegagerðin" }, "geometry": { "type": "Point", "coordinates": [ -24.5312, 65.5029 ] } },
{ "type": "Feature", "properties": { "name": "Lambavatn", "type": "Automated observational station", "station_number": "2315", "wmo_number": "4809", "abbreviation": "lamba", "region": "Breiðafjörður", "elevation": "4.0", "start_year": "2006", "owner": "Veðurstofa Íslands" }, "geometry": { "type": "Point", "coordinates": [ -24.0925, 65.4924 ] } },
{ "type": "Feature", "properties": { "name": "Patreksfjörður", "type": "Automated observational station", "station_number": "2319", "wmo_number": "4103", "abbreviation": "patro", "region": "Breiðafjörður", "elevation": "43.0", "start_year": "1996", "owner": "Veðurstofa Íslands - Ofanflóð" }, "geometry": { "type": "Point", "coordinates": [ -23.9748, 65.5951 ] } },
{ "type": "Feature", "properties": { "name": "Tálknafjörður", "type": "Automated observational station", "station_number": "2323", "wmo_number": "4905", "abbreviation": "talkn", "region": "Breiðafjörður", "elevation": "8.5", "start_year": "2008", "owner": "Veðurstofa Íslands - Ofanflóð" }, "geometry": { "type": "Point", "coordinates": [ -23.8302, 65.6276 ] } },
{ "type": "Feature", "properties": { "name": "Bíldudalur", "type": "Automated observational station", "station_number": "2428", "wmo_number": "4125", "abbreviation": "bildu", "region": "West fjords", "elevation": "16.0", "start_year": "1998", "owner": "Veðurstofa Íslands - Ofanflóð" }, "geometry": { "type": "Point", "coordinates": [ -23.6122, 65.6794 ] } },
{ "type": "Feature", "properties": { "name": "Bjarnarfjarðarháls", "type": "Automated observational station", "station_number": "2480", "wmo_number": "-99", "abbreviation": "bjafh", "region": "North West", "elevation": "238.5", "start_year": "2013", "owner": "Orkubú Vestfjarða" }, "geometry": { "type": "Point", "coordinates": [ -21.5718, 65.7284 ] } },
{ "type": "Feature", "properties": { "name": "Hólmavík", "type": "Automated observational station", "station_number": "2481", "wmo_number": "4935", "abbreviation": "holma", "region": "North West", "elevation": "10.0", "start_year": "2007", "owner": "Veðurstofa Íslands" }, "geometry": { "type": "Point", "coordinates": [ -21.6813, 65.6873 ] } },
{ "type": "Feature", "properties": { "name": "Hólar í Dýrafirði", "type": "Automated observational station", "station_number": "2530", "wmo_number": "-99", "abbreviation": "holar", "region": "West fjords", "elevation": "16.0", "start_year": "2020", "owner": "Veðurstofa Íslands" }, "geometry": { "type": "Point", "coordinates": [ -23.5578, 65.8686 ] } },
{ "type": "Feature", "properties": { "name": "Suðureyri", "type": "Automated observational station", "station_number": "2630", "wmo_number": "-99", "abbreviation": "seyri", "region": "West fjords", "elevation": "2.0", "start_year": "2021", "owner": "Veðurstofa Íslands - Ofanflóð" }, "geometry": { "type": "Point", "coordinates": [ -23.5077, 66.1251 ] } },
{ "type": "Feature", "properties": { "name": "Flateyri", "type": "Automated observational station", "station_number": "2631", "wmo_number": "-99", "abbreviation": "feyri", "region": "West fjords", "elevation": "3.0", "start_year": "1997", "owner": "Veðurstofa Íslands - Ofanflóð" }, "geometry": { "type": "Point", "coordinates": [ -23.51, 66.0498 ] } },
{ "type": "Feature", "properties": { "name": "Þverfjall", "type": "Automated observational station", "station_number": "2636", "wmo_number": "4109", "abbreviation": "tverf", "region": "West fjords", "elevation": "741.0", "start_year": "1990", "owner": "Veðurstofa Íslands - Ofanflóð" }, "geometry": { "type": "Point", "coordinates": [ -23.3074, 66.0444 ] } },
{ "type": "Feature", "properties": { "name": "Seljalandsdalur", "type": "Automated observational station", "station_number": "2640", "wmo_number": "4107", "abbreviation": "selja", "region": "West fjords", "elevation": "550.0", "start_year": "1995", "owner": "Veðurstofa Íslands - Ofanflóð" }, "geometry": { "type": "Point", "coordinates": [ -23.1987, 66.076 ] } },
{ "type": "Feature", "properties": { "name": "Seljalandsdalur - skíðaskáli", "type": "Automated observational station", "station_number": "2641", "wmo_number": "4819", "abbreviation": "selsk", "region": "West fjords", "elevation": "283.0", "start_year": "2005", "owner": "Veðurstofa Íslands - Ofanflóð" }, "geometry": { "type": "Point", "coordinates": [ -23.2103, 66.0687 ] } },
{ "type": "Feature", "properties": { "name": "Ísafjörður", "type": "Automated observational station", "station_number": "2642", "wmo_number": "4117", "abbreviation": "isafj", "region": "West fjords", "elevation": "2.200000047683716", "start_year": "1998", "owner": "Veðurstofa Íslands - Ofanflóð" }, "geometry": { "type": "Point", "coordinates": [ -23.1699, 66.0596 ] } },
{ "type": "Feature", "properties": { "name": "Súðavík", "type": "Automated observational station", "station_number": "2646", "wmo_number": "4111", "abbreviation": "sudav", "region": "West fjords", "elevation": "10.899999618530273", "start_year": "1995", "owner": "Veðurstofa Íslands - Ofanflóð" }, "geometry": { "type": "Point", "coordinates": [ -22.986, 66.0426 ] } },
{ "type": "Feature", "properties": { "name": "Æðey", "type": "Automated observational station", "station_number": "2655", "wmo_number": "4017", "abbreviation": "aedey", "region": "West fjords", "elevation": "21.0", "start_year": "2012", "owner": "Veðurstofa Íslands" }, "geometry": { "type": "Point", "coordinates": [ -22.6594, 66.1006 ] } },
{ "type": "Feature", "properties": { "name": "Litla-Ávík", "type": "Automated observational station", "station_number": "2691", "wmo_number": "-99", "abbreviation": "lavik", "region": "North West", "elevation": "8.100000381469727", "start_year": "2022", "owner": "Veðurstofa Íslands" }, "geometry": { "type": "Point", "coordinates": [ -21.4247, 66.0211 ] } },
{ "type": "Feature", "properties": { "name": "Gjögurflugvöllur", "type": "Automated observational station", "station_number": "2692", "wmo_number": "4131", "abbreviation": "gjogr", "region": "North West", "elevation": "28.100000381469727", "start_year": "1994", "owner": "Veðurstofa Íslands" }, "geometry": { "type": "Point", "coordinates": [ -21.3304, 65.9951 ] } },
{ "type": "Feature", "properties": { "name": "Gjögur", "type": "Automated observational station", "station_number": "2693", "wmo_number": "-99", "abbreviation": "gjogu", "region": "North West", "elevation": "25.600000381469727", "start_year": "2016", "owner": "Veðurstofa Íslands - Ofanflóð" }, "geometry": { "type": "Point", "coordinates": [ -21.3278, 65.9968 ] } },
{ "type": "Feature", "properties": { "name": "Bolungarvík", "type": "Automated observational station", "station_number": "2738", "wmo_number": "4005", "abbreviation": "bolun", "region": "West fjords", "elevation": "27.0", "start_year": "1999", "owner": "Veðurstofa Íslands - Ofanflóð" }, "geometry": { "type": "Point", "coordinates": [ -23.2538, 66.161 ] } },
{ "type": "Feature", "properties": { "name": "Hornbjargsviti", "type": "Automated observational station", "station_number": "2862", "wmo_number": "4123", "abbreviation": "hornb", "region": "North West", "elevation": "22.0", "start_year": "1995", "owner": "Vegagerðin" }, "geometry": { "type": "Point", "coordinates": [ -22.3789, 66.4107 ] } },
{ "type": "Feature", "properties": { "name": "Straumnesviti", "type": "Automated observational station", "station_number": "2941", "wmo_number": "4121", "abbreviation": "strnv", "region": "West fjords", "elevation": "7.0", "start_year": "1995", "owner": "Vegagerðin" }, "geometry": { "type": "Point", "coordinates": [ -23.1345, 66.4305 ] } },
{ "type": "Feature", "properties": { "name": "Austurárdalsháls", "type": "Automated observational station", "station_number": "3007", "wmo_number": "4945", "abbreviation": "audal", "region": "North West", "elevation": "383.0", "start_year": "2009", "owner": "Landsnet" }, "geometry": { "type": "Point", "coordinates": [ -20.6961, 65.123 ] } },
{ "type": "Feature", "properties": { "name": "Sáta", "type": "Automated observational station", "station_number": "3054", "wmo_number": "4861", "abbreviation": "satax", "region": "Central", "elevation": "785.0", "start_year": "1992", "owner": "Veðurstofa Íslands" }, "geometry": { "type": "Point", "coordinates": [ -18.8383, 65.0628 ] } },
{ "type": "Feature", "properties": { "name": "Haugur", "type": "Automated observational station", "station_number": "3103", "wmo_number": "4143", "abbreviation": "haugr", "region": "North West", "elevation": "118.30000305175781", "start_year": "2003", "owner": "Veðurstofa Íslands" }, "geometry": { "type": "Point", "coordinates": [ -20.785, 65.1839 ] } },
{ "type": "Feature", "properties": { "name": "Brúsastaðir", "type": "Automated observational station", "station_number": "3223", "wmo_number": "4147", "abbreviation": "brusa", "region": "North West", "elevation": "20.0", "start_year": "2003", "owner": "Veðurstofa Íslands" }, "geometry": { "type": "Point", "coordinates": [ -20.2473, 65.3784 ] } },
{ "type": "Feature", "properties": { "name": "Kolka", "type": "Automated observational station", "station_number": "3225", "wmo_number": "4149", "abbreviation": "kolka", "region": "Central", "elevation": "506.0", "start_year": "1993", "owner": "Landsvirkjun" }, "geometry": { "type": "Point", "coordinates": [ -19.7177, 65.2307 ] } },
{ "type": "Feature", "properties": { "name": "Nautabú", "type": "Automated observational station", "station_number": "3242", "wmo_number": "4135", "abbreviation": "nauta", "region": "North West", "elevation": "111.5", "start_year": "2004", "owner": "Veðurstofa Íslands" }, "geometry": { "type": "Point", "coordinates": [ -19.3691, 65.4583 ] } },
{ "type": "Feature", "properties": { "name": "Svartárkot", "type": "Automated observational station", "station_number": "3292", "wmo_number": "4153", "abbreviation": "svkot", "region": "North East", "elevation": "403.3999938964844", "start_year": "2003", "owner": "Landsnet" }, "geometry": { "type": "Point", "coordinates": [ -17.2465, 65.3419 ] } },
{ "type": "Feature", "properties": { "name": "Blönduós", "type": "Automated observational station", "station_number": "3317", "wmo_number": "4045", "abbreviation": "bldos", "region": "North West", "elevation": "8.0", "start_year": "2003", "owner": "Veðurstofa Íslands" }, "geometry": { "type": "Point", "coordinates": [ -20.2925, 65.658 ] } },
{ "type": "Feature", "properties": { "name": "Torfur", "type": "Automated observational station", "station_number": "3371", "wmo_number": "4061", "abbreviation": "torfr", "region": "North East", "elevation": "25.790000915527344", "start_year": "2006", "owner": "Veðurstofa Íslands" }, "geometry": { "type": "Point", "coordinates": [ -18.1616, 65.501 ] } },
{ "type": "Feature", "properties": { "name": "Reykir í Fnjóskadal", "type": "Automated observational station", "station_number": "3380", "wmo_number": "4867", "abbreviation": "reykf", "region": "North East", "elevation": "211.39999389648438", "start_year": "2000", "owner": "Veðurstofa Íslands" }, "geometry": { "type": "Point", "coordinates": [ -17.7667, 65.5851 ] } },
{ "type": "Feature", "properties": { "name": "Sauðárkrókur flugvöllur", "type": "Automated observational station", "station_number": "3433", "wmo_number": "4953", "abbreviation": "skrok", "region": "North West", "elevation": "0.5", "start_year": "2007", "owner": "Veðurstofa Íslands" }, "geometry": { "type": "Point", "coordinates": [ -19.5737, 65.7259 ] } },
{ "type": "Feature", "properties": { "name": "Möðruvellir", "type": "Automated observational station", "station_number": "3463", "wmo_number": "4167", "abbreviation": "modru", "region": "North East", "elevation": "15.0", "start_year": "1996", "owner": "Veðurstofa Íslands" }, "geometry": { "type": "Point", "coordinates": [ -18.2513, 65.7707 ] } },
{ "type": "Feature", "properties": { "name": "Akureyri - Krossanesbraut", "type": "Automated observational station", "station_number": "3471", "wmo_number": "4137", "abbreviation": "akurk", "region": "North East", "elevation": "31.0", "start_year": "2005", "owner": "Veðurstofa Íslands" }, "geometry": { "type": "Point", "coordinates": [ -18.1113, 65.6961 ] } },
{ "type": "Feature", "properties": { "name": "Vaðlaheiði", "type": "Automated observational station", "station_number": "3474", "wmo_number": "4163", "abbreviation": "vadla", "region": "North East", "elevation": "580.0", "start_year": "1999", "owner": "Veðurstofa Íslands - Ofanflóð" }, "geometry": { "type": "Point", "coordinates": [ -18.0021, 65.7483 ] } },
{ "type": "Feature", "properties": { "name": "Végeirsstaðir í Fnjóskadal", "type": "Automated observational station", "station_number": "3477", "wmo_number": "4141", "abbreviation": "vegei", "region": "North East", "elevation": "130.3000030517578", "start_year": "2001", "owner": "Veðurstofa Íslands" }, "geometry": { "type": "Point", "coordinates": [ -17.8857, 65.817 ] } },
{ "type": "Feature", "properties": { "name": "Björg í Kinn", "type": "Automated observational station", "station_number": "3585", "wmo_number": "-99", "abbreviation": "utkin", "region": "North East", "elevation": "4.0", "start_year": "2022", "owner": "Veðurstofa Íslands - Ofanflóð" }, "geometry": { "type": "Point", "coordinates": [ -17.5919, 65.9454 ] } },
{ "type": "Feature", "properties": { "name": "Staðarhóll", "type": "Automated observational station", "station_number": "3591", "wmo_number": "4069", "abbreviation": "sholl", "region": "North East", "elevation": "40.0", "start_year": "2012", "owner": "Veðurstofa Íslands" }, "geometry": { "type": "Point", "coordinates": [ -17.3446, 65.821 ] } },
{ "type": "Feature", "properties": { "name": "Ólafsfjörður", "type": "Automated observational station", "station_number": "3658", "wmo_number": "4155", "abbreviation": "olfjo", "region": "North East", "elevation": "5.0", "start_year": "1997", "owner": "Veðurstofa Íslands - Ofanflóð" }, "geometry": { "type": "Point", "coordinates": [ -18.6656, 66.0739 ] } },
{ "type": "Feature", "properties": { "name": "Húsavík", "type": "Automated observational station", "station_number": "3696", "wmo_number": "4171", "abbreviation": "husvk", "region": "North East", "elevation": "28.200000762939453", "start_year": "2002", "owner": "Veðurstofa Íslands" }, "geometry": { "type": "Point", "coordinates": [ -17.3281, 66.0418 ] } },
{ "type": "Feature", "properties": { "name": "Skagatá", "type": "Automated observational station", "station_number": "3720", "wmo_number": "4151", "abbreviation": "skagt", "region": "North West", "elevation": "9.0", "start_year": "1996", "owner": "Vegagerðin" }, "geometry": { "type": "Point", "coordinates": [ -20.0989, 66.1192 ] } },
{ "type": "Feature", "properties": { "name": "Sauðanesviti", "type": "Automated observational station", "station_number": "3751", "wmo_number": "-99", "abbreviation": "saudv", "region": "North West", "elevation": "35.0", "start_year": "2020", "owner": "Veðurstofa Íslands" }, "geometry": { "type": "Point", "coordinates": [ -18.9534, 66.1845 ] } },
{ "type": "Feature", "properties": { "name": "Siglufjörður", "type": "Automated observational station", "station_number": "3752", "wmo_number": "4157", "abbreviation": "sifjo", "region": "North West", "elevation": "6.0", "start_year": "1995", "owner": "Veðurstofa Íslands - Ofanflóð" }, "geometry": { "type": "Point", "coordinates": [ -18.919, 66.1349 ] } },
{ "type": "Feature", "properties": { "name": "Flatey á Skjálfanda", "type": "Automated observational station", "station_number": "3779", "wmo_number": "4965", "abbreviation": "flats", "region": "North East", "elevation": "22.0", "start_year": "2005", "owner": "Vegagerðin" }, "geometry": { "type": "Point", "coordinates": [ -17.8408, 66.1631 ] } },
{ "type": "Feature", "properties": { "name": "Mánárbakki", "type": "Automated observational station", "station_number": "3797", "wmo_number": "4071", "abbreviation": "manar", "region": "North East", "elevation": "17.0", "start_year": "2005", "owner": "Veðurstofa Íslands" }, "geometry": { "type": "Point", "coordinates": [ -17.1028, 66.1994 ] } },
{ "type": "Feature", "properties": { "name": "Grímsey", "type": "Automated observational station", "station_number": "3976", "wmo_number": "4165", "abbreviation": "grimy", "region": "North East", "elevation": "19.0", "start_year": "2005", "owner": "Veðurstofa Íslands" }, "geometry": { "type": "Point", "coordinates": [ -18.0167, 66.5438 ] } },
{ "type": "Feature", "properties": { "name": "Upptyppingar", "type": "Automated observational station", "station_number": "4019", "wmo_number": "4177", "abbreviation": "uppty", "region": "Central", "elevation": "563.0", "start_year": "1999", "owner": "Veðurstofa Íslands" }, "geometry": { "type": "Point", "coordinates": [ -16.2104, 65.0607 ] } },
{ "type": "Feature", "properties": { "name": "Hallormsstaður", "type": "Automated observational station", "station_number": "4060", "wmo_number": "4189", "abbreviation": "hallm", "region": "Eastern coastal areas", "elevation": "60.0", "start_year": "1992", "owner": "Veðurstofa Íslands" }, "geometry": { "type": "Point", "coordinates": [ -14.7449, 65.0939 ] } },
{ "type": "Feature", "properties": { "name": "Seyðisfjörður", "type": "Automated observational station", "station_number": "4182", "wmo_number": "4195", "abbreviation": "seydi", "region": "East fjords", "elevation": "37.0", "start_year": "2014", "owner": "Veðurstofa Íslands - Ofanflóð" }, "geometry": { "type": "Point", "coordinates": [ -14.0064, 65.2549 ] } },
{ "type": "Feature", "properties": { "name": "Dalatangi", "type": "Automated observational station", "station_number": "4193", "wmo_number": "4197", "abbreviation": "dalat", "region": "East fjords", "elevation": "10.0", "start_year": "1994", "owner": "Veðurstofa Íslands" }, "geometry": { "type": "Point", "coordinates": [ -13.5751, 65.2681 ] } },
{ "type": "Feature", "properties": { "name": "Gagnheiði", "type": "Automated observational station", "station_number": "4275", "wmo_number": "4193", "abbreviation": "gagnh", "region": "East fjords", "elevation": "949.0", "start_year": "1993", "owner": "Veðurstofa Íslands - Ofanflóð" }, "geometry": { "type": "Point", "coordinates": [ -14.2589, 65.2235 ] } },
{ "type": "Feature", "properties": { "name": "Gagnheiði II", "type": "Automated observational station", "station_number": "4276", "wmo_number": "-99", "abbreviation": "gagnv", "region": "East fjords", "elevation": "949.0", "start_year": "2022", "owner": "Veðurstofa Íslands" }, "geometry": { "type": "Point", "coordinates": [ -14.2589, 65.2234 ] } },
{ "type": "Feature", "properties": { "name": "Mývatn", "type": "Automated observational station", "station_number": "4300", "wmo_number": "4173", "abbreviation": "myvtn", "region": "North East", "elevation": "282.29998779296875", "start_year": "1996", "owner": "Veðurstofa Íslands" }, "geometry": { "type": "Point", "coordinates": [ -16.9768, 65.6193 ] } },
{ "type": "Feature", "properties": { "name": "Grímsstaðir á Fjöllum", "type": "Automated observational station", "station_number": "4323", "wmo_number": "4941", "abbreviation": "grist", "region": "North East", "elevation": "382.29998779296875", "start_year": "2012", "owner": "Veðurstofa Íslands" }, "geometry": { "type": "Point", "coordinates": [ -16.1284, 65.6423 ] } },
{ "type": "Feature", "properties": { "name": "Bakkagerði", "type": "Automated observational station", "station_number": "4380", "wmo_number": "-99", "abbreviation": "bfjeb", "region": "Eastern coastal areas", "elevation": "28.0", "start_year": "2017", "owner": "Veðurstofa Íslands - Ofanflóð" }, "geometry": { "type": "Point", "coordinates": [ -13.8167, 65.5235 ] } },
{ "type": "Feature", "properties": { "name": "Krafla", "type": "Automated observational station", "station_number": "4406", "wmo_number": "4987", "abbreviation": "krafl", "region": "North East", "elevation": "455.0", "start_year": "2011", "owner": "Landsvirkjun" }, "geometry": { "type": "Point", "coordinates": [ -16.7748, 65.6945 ] } },
{ "type": "Feature", "properties": { "name": "Skjaldþingsstaðir", "type": "Automated observational station", "station_number": "4455", "wmo_number": "4985", "abbreviation": "skjal", "region": "Eastern coastal areas", "elevation": "34.79999923706055", "start_year": "2006", "owner": "Veðurstofa Íslands" }, "geometry": { "type": "Point", "coordinates": [ -14.8208, 65.7036 ] } },
{ "type": "Feature", "properties": { "name": "Bjarnarey", "type": "Automated observational station", "station_number": "4472", "wmo_number": "4187", "abbreviation": "bjarn", "region": "Eastern coastal areas", "elevation": "20.0", "start_year": "1996", "owner": "Vegagerðin" }, "geometry": { "type": "Point", "coordinates": [ -14.3082, 65.7857 ] } },
{ "type": "Feature", "properties": { "name": "Þeistareykir", "type": "Automated observational station", "station_number": "4500", "wmo_number": "4967", "abbreviation": "teist", "region": "North East", "elevation": "311.0", "start_year": "2005", "owner": "Landsvirkjun" }, "geometry": { "type": "Point", "coordinates": [ -16.9762, 65.911 ] } },
{ "type": "Feature", "properties": { "name": "Ásbyrgi", "type": "Automated observational station", "station_number": "4614", "wmo_number": "4179", "abbreviation": "asbrg", "region": "North East", "elevation": "31.5", "start_year": "1998", "owner": "Veðurstofa Íslands" }, "geometry": { "type": "Point", "coordinates": [ -16.4833, 66.03 ] } },
{ "type": "Feature", "properties": { "name": "Miðfjarðarnes", "type": "Automated observational station", "station_number": "4652", "wmo_number": "4983", "abbreviation": "midfj", "region": "Eastern coastal areas", "elevation": "25.0", "start_year": "2008", "owner": "Veðurstofa Íslands" }, "geometry": { "type": "Point", "coordinates": [ -15.0799, 66.0668 ] } },
{ "type": "Feature", "properties": { "name": "Raufarhöfn", "type": "Automated observational station", "station_number": "4828", "wmo_number": "4077", "abbreviation": "raufa", "region": "North East", "elevation": "4.0", "start_year": "2005", "owner": "Veðurstofa Íslands" }, "geometry": { "type": "Point", "coordinates": [ -15.9527, 66.456 ] } },
{ "type": "Feature", "properties": { "name": "Möðrudalur", "type": "Automated observational station", "station_number": "4830", "wmo_number": "4181", "abbreviation": "modal", "region": "Eastern coastal areas", "elevation": "452.0", "start_year": "2003", "owner": "Veðurstofa Íslands" }, "geometry": { "type": "Point", "coordinates": [ -15.8833, 65.3754 ] } },
{ "type": "Feature", "properties": { "name": "Fontur", "type": "Automated observational station", "station_number": "4867", "wmo_number": "4183", "abbreviation": "fontr", "region": "North East", "elevation": "43.0", "start_year": "1994", "owner": "Veðurstofa Íslands" }, "geometry": { "type": "Point", "coordinates": [ -14.5326, 66.3783 ] } },
{ "type": "Feature", "properties": { "name": "Rauðinúpur", "type": "Automated observational station", "station_number": "4912", "wmo_number": "4175", "abbreviation": "raudi", "region": "North East", "elevation": "59.29999923706055", "start_year": "1997", "owner": "Veðurstofa Íslands" }, "geometry": { "type": "Point", "coordinates": [ -16.5444, 66.5082 ] } },
{ "type": "Feature", "properties": { "name": "Rif á Melrakkasléttu", "type": "Automated observational station", "station_number": "4921", "wmo_number": "-99", "abbreviation": "rifms", "region": "North East", "elevation": "10.0", "start_year": "2018", "owner": "Rannsóknastöðin RIF" }, "geometry": { "type": "Point", "coordinates": [ -16.1441, 66.5115 ] } },
{ "type": "Feature", "properties": { "name": "Ingólfshöfði", "type": "Automated observational station", "station_number": "5210", "wmo_number": "4884", "abbreviation": "ingol", "region": "South East", "elevation": "57.20000076293945", "start_year": "2004", "owner": "Vegagerðin" }, "geometry": { "type": "Point", "coordinates": [ -16.6509, 63.8028 ] } },
{ "type": "Feature", "properties": { "name": "Fagurhólsmýri", "type": "Automated observational station", "station_number": "5309", "wmo_number": "4072", "abbreviation": "fagho", "region": "South East", "elevation": "9.300000190734863", "start_year": "2003", "owner": "Veðurstofa Íslands" }, "geometry": { "type": "Point", "coordinates": [ -16.6364, 63.8743 ] } },
{ "type": "Feature", "properties": { "name": "Kvísker", "type": "Automated observational station", "station_number": "5316", "wmo_number": "4970", "abbreviation": "ksker", "region": "South East", "elevation": "30.0", "start_year": "2008", "owner": "Veðurstofa Íslands" }, "geometry": { "type": "Point", "coordinates": [ -16.4366, 63.9777 ] } },
{ "type": "Feature", "properties": { "name": "Höfn í Hornafirði", "type": "Automated observational station", "station_number": "5544", "wmo_number": "4082", "abbreviation": "hofnh", "region": "South East", "elevation": "5.0", "start_year": "2007", "owner": "Veðurstofa Íslands" }, "geometry": { "type": "Point", "coordinates": [ -15.2135, 64.2691 ] } },
{ "type": "Feature", "properties": { "name": "Papey", "type": "Automated observational station", "station_number": "5777", "wmo_number": "4194", "abbreviation": "papey", "region": "East fjords", "elevation": "49.0", "start_year": "1998", "owner": "Vegagerðin" }, "geometry": { "type": "Point", "coordinates": [ -14.1747, 64.5911 ] } },
{ "type": "Feature", "properties": { "name": "Brúaröræfi", "type": "Automated observational station", "station_number": "5825", "wmo_number": "4978", "abbreviation": "bruor", "region": "Central", "elevation": "748.2000122070312", "start_year": "2006", "owner": "Landsvirkjun" }, "geometry": { "type": "Point", "coordinates": [ -16.0897, 64.8281 ] } },
{ "type": "Feature", "properties": { "name": "Innri Sauðá", "type": "Automated observational station", "station_number": "5847", "wmo_number": "-99", "abbreviation": "sauda", "region": "Central", "elevation": "750.0", "start_year": "2014", "owner": "Landsvirkjun" }, "geometry": { "type": "Point", "coordinates": [ -15.3228, 64.8161 ] } },
{ "type": "Feature", "properties": { "name": "Teigarhorn", "type": "Automated observational station", "station_number": "5872", "wmo_number": "4184", "abbreviation": "teiga", "region": "East fjords", "elevation": "20.700000762939453", "start_year": "2001", "owner": "Veðurstofa Íslands" }, "geometry": { "type": "Point", "coordinates": [ -14.3444, 64.6757 ] } },
{ "type": "Feature", "properties": { "name": "Kambanes", "type": "Automated observational station", "station_number": "5885", "wmo_number": "4196", "abbreviation": "kamba", "region": "East fjords", "elevation": "29.799999237060547", "start_year": "1994", "owner": "Veðurstofa Íslands" }, "geometry": { "type": "Point", "coordinates": [ -13.8423, 64.8012 ] } },
{ "type": "Feature", "properties": { "name": "Brúarjökull B10", "type": "Automated observational station", "station_number": "5932", "wmo_number": "4982", "abbreviation": "bruar", "region": "Central", "elevation": "845.0", "start_year": "2005", "owner": "Landsvirkjun" }, "geometry": { "type": "Point", "coordinates": [ -16.1117, 64.728 ] } },
{ "type": "Feature", "properties": { "name": "Kárahnjúkar", "type": "Automated observational station", "station_number": "5933", "wmo_number": "4176", "abbreviation": "karah", "region": "Central", "elevation": "639.0", "start_year": "1998", "owner": "Landsvirkjun" }, "geometry": { "type": "Point", "coordinates": [ -15.7771, 64.9284 ] } },
{ "type": "Feature", "properties": { "name": "Brú á Jökuldal", "type": "Automated observational station", "station_number": "5940", "wmo_number": "4169", "abbreviation": "brujd", "region": "Eastern coastal areas", "elevation": "373.0", "start_year": "1998", "owner": "Veðurstofa Íslands" }, "geometry": { "type": "Point", "coordinates": [ -15.5297, 65.1086 ] } },
{ "type": "Feature", "properties": { "name": "Eyjabakkar", "type": "Automated observational station", "station_number": "5943", "wmo_number": "4178", "abbreviation": "eyjab", "region": "Central", "elevation": "655.3200073242188", "start_year": "1997", "owner": "Landsvirkjun" }, "geometry": { "type": "Point", "coordinates": [ -15.4235, 64.8151 ] } },
{ "type": "Feature", "properties": { "name": "Hallormsstaðaháls", "type": "Automated observational station", "station_number": "5960", "wmo_number": "4190", "abbreviation": "hhals", "region": "Central", "elevation": "573.1099853515625", "start_year": "1996", "owner": "Landsnet" }, "geometry": { "type": "Point", "coordinates": [ -14.6748, 65.0795 ] } },
{ "type": "Feature", "properties": { "name": "Þórudalur", "type": "Automated observational station", "station_number": "5965", "wmo_number": "-99", "abbreviation": "thord", "region": "East fjords", "elevation": "300.0", "start_year": "2017", "owner": "Landsnet" }, "geometry": { "type": "Point", "coordinates": [ -14.5711, 65.0364 ] } },
{ "type": "Feature", "properties": { "name": "Hallsteinsdalsvarp", "type": "Automated observational station", "station_number": "5970", "wmo_number": "4981", "abbreviation": "halls", "region": "East fjords", "elevation": "634.0", "start_year": "2007", "owner": "Landsnet" }, "geometry": { "type": "Point", "coordinates": [ -14.4535, 65.0182 ] } },
{ "type": "Feature", "properties": { "name": "Kollaleira í Reyðarfirði", "type": "Automated observational station", "station_number": "5975", "wmo_number": "4186", "abbreviation": "kolla", "region": "East fjords", "elevation": "44.0", "start_year": "2000", "owner": "Veðurstofa Íslands" }, "geometry": { "type": "Point", "coordinates": [ -14.2395, 65.0367 ] } },
{ "type": "Feature", "properties": { "name": "Eskifjörður", "type": "Automated observational station", "station_number": "5981", "wmo_number": "4185", "abbreviation": "eskif", "region": "East fjords", "elevation": "2.0", "start_year": "1998", "owner": "Veðurstofa Íslands - Ofanflóð" }, "geometry": { "type": "Point", "coordinates": [ -14.037, 65.0763 ] } },
{ "type": "Feature", "properties": { "name": "Fáskrúðsfjörður Ljósaland", "type": "Automated observational station", "station_number": "5982", "wmo_number": "4998", "abbreviation": "faskr", "region": "East fjords", "elevation": "8.0", "start_year": "2007", "owner": "Veðurstofa Íslands - Ofanflóð" }, "geometry": { "type": "Point", "coordinates": [ -14.0407, 64.9372 ] } },
{ "type": "Feature", "properties": { "name": "Vattarnes", "type": "Automated observational station", "station_number": "5988", "wmo_number": "4188", "abbreviation": "vatta", "region": "East fjords", "elevation": "5.300000190734863", "start_year": "2000", "owner": "Veðurstofa Íslands" }, "geometry": { "type": "Point", "coordinates": [ -13.6846, 64.937 ] } },
{ "type": "Feature", "properties": { "name": "Neskaupstaður", "type": "Automated observational station", "station_number": "5990", "wmo_number": "4199", "abbreviation": "nkaup", "region": "East fjords", "elevation": "49.70000076293945", "start_year": "1999", "owner": "Veðurstofa Íslands - Ofanflóð" }, "geometry": { "type": "Point", "coordinates": [ -13.6694, 65.1503 ] } },
{ "type": "Feature", "properties": { "name": "Neskaupstaður - Drangagil", "type": "Automated observational station", "station_number": "5992", "wmo_number": "4899", "abbreviation": "nkaud", "region": "East fjords", "elevation": "559.0", "start_year": "2005", "owner": "Veðurstofa Íslands - Ofanflóð" }, "geometry": { "type": "Point", "coordinates": [ -13.688, 65.1618 ] } },
{ "type": "Feature", "properties": { "name": "Seley", "type": "Automated observational station", "station_number": "5993", "wmo_number": "4198", "abbreviation": "seley", "region": "East fjords", "elevation": "18.0", "start_year": "1996", "owner": "Vegagerðin" }, "geometry": { "type": "Point", "coordinates": [ -13.5192, 64.9778 ] } },
{ "type": "Feature", "properties": { "name": "Surtsey", "type": "Automated observational station", "station_number": "6012", "wmo_number": "4102", "abbreviation": "surte", "region": "South", "elevation": "36.0", "start_year": "2009", "owner": "Veðurstofa Íslands" }, "geometry": { "type": "Point", "coordinates": [ -20.5995, 63.2993 ] } },
{ "type": "Feature", "properties": { "name": "Vestmannaeyjabær", "type": "Automated observational station", "station_number": "6015", "wmo_number": "4146", "abbreviation": "vestb", "region": "South", "elevation": "40.400001525878906", "start_year": "2002", "owner": "Veðurstofa Íslands" }, "geometry": { "type": "Point", "coordinates": [ -20.2758, 63.4359 ] } },
{ "type": "Feature", "properties": { "name": "Stórhöfði", "type": "Automated observational station", "station_number": "6017", "wmo_number": "4048", "abbreviation": "storh", "region": "South", "elevation": "118.0", "start_year": "1997", "owner": "Veðurstofa Íslands" }, "geometry": { "type": "Point", "coordinates": [ -20.2882, 63.3996 ] } },
{ "type": "Feature", "properties": { "name": "Vatnsskarðshólar", "type": "Automated observational station", "station_number": "6045", "wmo_number": "4164", "abbreviation": "vskho", "region": "South", "elevation": "20.0", "start_year": "2003", "owner": "Veðurstofa Íslands" }, "geometry": { "type": "Point", "coordinates": [ -19.183, 63.4236 ] } },
{ "type": "Feature", "properties": { "name": "Önundarhorn", "type": "Automated observational station", "station_number": "6134", "wmo_number": "4938", "abbreviation": "onund", "region": "South", "elevation": "12.0", "start_year": "2010", "owner": "Veðurstofa Íslands" }, "geometry": { "type": "Point", "coordinates": [ -19.6357, 63.5242 ] } },
{ "type": "Feature", "properties": { "name": "Skarðsfjöruviti", "type": "Automated observational station", "station_number": "6176", "wmo_number": "4170", "abbreviation": "skafj", "region": "South East", "elevation": "6.0", "start_year": "1994", "owner": "Vegagerðin" }, "geometry": { "type": "Point", "coordinates": [ -17.9785, 63.5179 ] } },
{ "type": "Feature", "properties": { "name": "Þykkvibær", "type": "Automated observational station", "station_number": "6208", "wmo_number": "4144", "abbreviation": "opart", "region": "South", "elevation": "10.0", "start_year": "1996", "owner": "Veðurstofa Íslands" }, "geometry": { "type": "Point", "coordinates": [ -20.6182, 63.7477 ] } },
{ "type": "Feature", "properties": { "name": "Sámsstaðir", "type": "Automated observational station", "station_number": "6222", "wmo_number": "4152", "abbreviation": "samst", "region": "South", "elevation": "90.0", "start_year": "2000", "owner": "Veðurstofa Íslands" }, "geometry": { "type": "Point", "coordinates": [ -20.1091, 63.7354 ] } },
{ "type": "Feature", "properties": { "name": "Tindfjöll", "type": "Automated observational station", "station_number": "6235", "wmo_number": "4952", "abbreviation": "tindf", "region": "Central", "elevation": "870.0", "start_year": "2005", "owner": "Veðurstofa Íslands" }, "geometry": { "type": "Point", "coordinates": [ -19.6773, 63.7757 ] } },
{ "type": "Feature", "properties": { "name": "Básar á Goðalandi", "type": "Automated observational station", "station_number": "6237", "wmo_number": "4954", "abbreviation": "basar", "region": "South", "elevation": "239.0", "start_year": "2008", "owner": "Veðurstofa Íslands" }, "geometry": { "type": "Point", "coordinates": [ -19.4814, 63.6791 ] } },
{ "type": "Feature", "properties": { "name": "Kirkjubæjarklaustur - Stjórnarsandur", "type": "Automated observational station", "station_number": "6272", "wmo_number": "4064", "abbreviation": "klaus", "region": "South East", "elevation": "22.0", "start_year": "2004", "owner": "Veðurstofa Íslands" }, "geometry": { "type": "Point", "coordinates": [ -18.0119, 63.793 ] } },
{ "type": "Feature", "properties": { "name": "Selfoss", "type": "Automated observational station", "station_number": "6300", "wmo_number": "-99", "abbreviation": "sfoss", "region": "South", "elevation": "20.0", "start_year": "2019", "owner": "Veðurstofa Íslands" }, "geometry": { "type": "Point", "coordinates": [ -20.9707, 63.9355 ] } },
{ "type": "Feature", "properties": { "name": "Kálfhóll", "type": "Automated observational station", "station_number": "6310", "wmo_number": "4804", "abbreviation": "kalfh", "region": "South", "elevation": "52.0", "start_year": "2003", "owner": "Veðurstofa Íslands" }, "geometry": { "type": "Point", "coordinates": [ -20.5669, 63.9628 ] } },
{ "type": "Feature", "properties": { "name": "Hella", "type": "Automated observational station", "station_number": "6315", "wmo_number": "4944", "abbreviation": "hella", "region": "South", "elevation": "20.0", "start_year": "2006", "owner": "Veðurstofa Íslands" }, "geometry": { "type": "Point", "coordinates": [ -20.3654, 63.8257 ] } },
{ "type": "Feature", "properties": { "name": "Skeiðarársandur", "type": "Automated observational station", "station_number": "6393", "wmo_number": "4939", "abbreviation": "ssand", "region": "South East", "elevation": "0.30000001192092896", "start_year": "2013", "owner": "Veðurstofa Íslands" }, "geometry": { "type": "Point", "coordinates": [ -17.274, 63.9034 ] } },
{ "type": "Feature", "properties": { "name": "Árnes", "type": "Automated observational station", "station_number": "6420", "wmo_number": "4820", "abbreviation": "arnes", "region": "South", "elevation": "87.0", "start_year": "2003", "owner": "Veðurstofa Íslands" }, "geometry": { "type": "Point", "coordinates": [ -20.2521, 64.0405 ] } },
{ "type": "Feature", "properties": { "name": "Mörk á Landi", "type": "Automated observational station", "station_number": "6424", "wmo_number": "4948", "abbreviation": "morla", "region": "South", "elevation": "125.0", "start_year": "2008", "owner": "Veðurstofa Íslands" }, "geometry": { "type": "Point", "coordinates": [ -20.0189, 64.0293 ] } },
{ "type": "Feature", "properties": { "name": "Búrfell", "type": "Automated observational station", "station_number": "6430", "wmo_number": "4154", "abbreviation": "bfell", "region": "South", "elevation": "249.0", "start_year": "1993", "owner": "Landsvirkjun" }, "geometry": { "type": "Point", "coordinates": [ -19.7449, 64.1168 ] } },
{ "type": "Feature", "properties": { "name": "Lónakvísl", "type": "Automated observational station", "station_number": "6459", "wmo_number": "4180", "abbreviation": "lonak", "region": "Central", "elevation": "675.0", "start_year": "1999", "owner": "Landsvirkjun" }, "geometry": { "type": "Point", "coordinates": [ -18.6141, 64.0981 ] } },
{ "type": "Feature", "properties": { "name": "Laufbali", "type": "Automated observational station", "station_number": "6472", "wmo_number": "4872", "abbreviation": "laufb", "region": "Central", "elevation": "555.5999755859375", "start_year": "1993", "owner": "Veðurstofa Íslands" }, "geometry": { "type": "Point", "coordinates": [ -18.1196, 64.0255 ] } },
{ "type": "Feature", "properties": { "name": "Skaftafell", "type": "Automated observational station", "station_number": "6499", "wmo_number": "4172", "abbreviation": "skaft", "region": "South East", "elevation": "86.0", "start_year": "1995", "owner": "Veðurstofa Íslands" }, "geometry": { "type": "Point", "coordinates": [ -16.9667, 64.0157 ] } },
{ "type": "Feature", "properties": { "name": "Hjarðarland", "type": "Automated observational station", "station_number": "6515", "wmo_number": "4942", "abbreviation": "hjard", "region": "South", "elevation": "88.0", "start_year": "2004", "owner": "Veðurstofa Íslands" }, "geometry": { "type": "Point", "coordinates": [ -20.3307, 64.2506 ] } },
{ "type": "Feature", "properties": { "name": "Vatnsfell", "type": "Automated observational station", "station_number": "6546", "wmo_number": "4950", "abbreviation": "vfell", "region": "Central", "elevation": "539.5", "start_year": "2004", "owner": "Landsvirkjun" }, "geometry": { "type": "Point", "coordinates": [ -19.0467, 64.1956 ] } },
{ "type": "Feature", "properties": { "name": "Veiðivatnahraun", "type": "Automated observational station", "station_number": "6657", "wmo_number": "4162", "abbreviation": "veivh", "region": "Central", "elevation": "647.0", "start_year": "1993", "owner": "Landsvirkjun" }, "geometry": { "type": "Point", "coordinates": [ -18.5048, 64.3951 ] } },
{ "type": "Feature", "properties": { "name": "Jökulheimar", "type": "Automated observational station", "station_number": "6670", "wmo_number": "4166", "abbreviation": "jheim", "region": "Central", "elevation": "726.0", "start_year": "1993", "owner": "Landsvirkjun" }, "geometry": { "type": "Point", "coordinates": [ -18.2208, 64.3163 ] } },
{ "type": "Feature", "properties": { "name": "Kerlingarfjöll - Ásgarðsfjall", "type": "Automated observational station", "station_number": "6745", "wmo_number": "-99", "abbreviation": "asgfj", "region": "Central", "elevation": "925.0", "start_year": "2017", "owner": "Veðurstofa Íslands" }, "geometry": { "type": "Point", "coordinates": [ -19.2827, 64.681 ] } },
{ "type": "Feature", "properties": { "name": "Setur", "type": "Automated observational station", "station_number": "6748", "wmo_number": "4158", "abbreviation": "setur", "region": "Central", "elevation": "693.0", "start_year": "1997", "owner": "Landsvirkjun" }, "geometry": { "type": "Point", "coordinates": [ -19.0186, 64.6043 ] } },
{ "type": "Feature", "properties": { "name": "Þúfuver", "type": "Automated observational station", "station_number": "6760", "wmo_number": "4160", "abbreviation": "tuver", "region": "Central", "elevation": "620.0", "start_year": "1993", "owner": "Landsvirkjun" }, "geometry": { "type": "Point", "coordinates": [ -18.5987, 64.5819 ] } },
{ "type": "Feature", "properties": { "name": "Húsafell", "type": "Automated observational station", "station_number": "6802", "wmo_number": "4150", "abbreviation": "husaf", "region": "Faxaflói", "elevation": "132.8000030517578", "start_year": "1998", "owner": "Veðurstofa Íslands" }, "geometry": { "type": "Point", "coordinates": [ -20.869, 64.699 ] } },
{ "type": "Feature", "properties": { "name": "Hveravellir", "type": "Automated observational station", "station_number": "6935", "wmo_number": "4056", "abbreviation": "hvell", "region": "Central", "elevation": "641.0", "start_year": "1996", "owner": "Veðurstofa Íslands" }, "geometry": { "type": "Point", "coordinates": [ -19.5622, 64.8668 ] } },
{ "type": "Feature", "properties": { "name": "Sandbúðir", "type": "Automated observational station", "station_number": "6975", "wmo_number": "4168", "abbreviation": "sandb", "region": "Central", "elevation": "820.0", "start_year": "1993", "owner": "Landsvirkjun" }, "geometry": { "type": "Point", "coordinates": [ -17.9889, 64.9331 ] } },
{ "type": "Feature", "properties": { "name": "Þverfjall vindur", "type": "Automated observational station", "station_number": "7636", "wmo_number": "-99", "abbreviation": "tverv", "region": "West fjords", "elevation": "741.0", "start_year": "2020", "owner": "Veðurstofa Íslands" }, "geometry": { "type": "Point", "coordinates": [ -23.3076, 66.0448 ] } },
{ "type": "Feature", "properties": { "name": "Ólafsfjörður - Tindaöxl", "type": "Automated observational station", "station_number": "7659", "wmo_number": "4955", "abbreviation": "olfti", "region": "North East", "elevation": "450.0", "start_year": "2006", "owner": "Veðurstofa Íslands - Ofanflóð" }, "geometry": { "type": "Point", "coordinates": [ -18.6309, 66.063 ] } },
{ "type": "Feature", "properties": { "name": "Bolungarvík - Traðargil", "type": "Automated observational station", "station_number": "7736", "wmo_number": "4927", "abbreviation": "boltr", "region": "West fjords", "elevation": "500.0", "start_year": "2006", "owner": "Veðurstofa Íslands - Ofanflóð" }, "geometry": { "type": "Point", "coordinates": [ -23.2681, 66.1684 ] } },
{ "type": "Feature", "properties": { "name": "Siglufjörður - Hafnarfjall", "type": "Automated observational station", "station_number": "7753", "wmo_number": "4957", "abbreviation": "sifhf", "region": "North West", "elevation": "550.0", "start_year": "2006", "owner": "Veðurstofa Íslands - Ofanflóð" }, "geometry": { "type": "Point", "coordinates": [ -18.9352, 66.1535 ] } },
{ "type": "Feature", "properties": { "name": "Dyngjujökull", "type": "Automated observational station", "station_number": "7790", "wmo_number": "-99", "abbreviation": "djoku", "region": "Central", "elevation": "1689.0", "start_year": "2016", "owner": "Veðurstofa Íslands" }, "geometry": { "type": "Point", "coordinates": [ -17.2348, 64.5039 ] } },
{ "type": "Feature", "properties": { "name": "Landmannalaugar", "type": "Virtual station", "station_number": "9001", "wmo_number": "-99", "abbreviation": "lndml", "region": "Central", "elevation": "590.0", "start_year": "2014", "owner": "Veðurstofa Íslands" }, "geometry": { "type": "Point", "coordinates": [ -19.06, 63.99 ] } },
{ "type": "Feature", "properties": { "name": "Þverfellshorn á Esju", "type": "Virtual station", "station_number": "9002", "wmo_number": "-99", "abbreviation": "thvfh", "region": "Faxaflói", "elevation": "780.0", "start_year": "2014", "owner": "Veðurstofa Íslands" }, "geometry": { "type": "Point", "coordinates": [ -21.7117, 64.2328 ] } },
{ "type": "Feature", "properties": { "name": "Fimmvörðuháls", "type": "Virtual station", "station_number": "9003", "wmo_number": "-99", "abbreviation": "fimmv", "region": "South", "elevation": "950.0", "start_year": "2014", "owner": "Veðurstofa Íslands" }, "geometry": { "type": "Point", "coordinates": [ -19.4515, 63.662 ] } },
{ "type": "Feature", "properties": { "name": "Hrafntinnusker", "type": "Virtual station", "station_number": "9004", "wmo_number": "-99", "abbreviation": "hrfnt", "region": "Central", "elevation": "1027.0", "start_year": "2014", "owner": "Veðurstofa Íslands" }, "geometry": { "type": "Point", "coordinates": [ -19.1681, 63.9333 ] } },
{ "type": "Feature", "properties": { "name": "Hvannadalshjúkur", "type": "Virtual station", "station_number": "9005", "wmo_number": "-99", "abbreviation": "hvann", "region": "South East", "elevation": "2109.60009765625", "start_year": "2014", "owner": "Veðurstofa Íslands" }, "geometry": { "type": "Point", "coordinates": [ -16.676, 64.015 ] } },
{ "type": "Feature", "properties": { "name": "Dreki", "type": "Virtual station", "station_number": "9006", "wmo_number": "-99", "abbreviation": "dreki", "region": "Central", "elevation": "780.0", "start_year": "2014", "owner": "Veðurstofa Íslands" }, "geometry": { "type": "Point", "coordinates": [ -16.595, 65.042 ] } },
{ "type": "Feature", "properties": { "name": "Nýjidalur", "type": "Virtual station", "station_number": "9007", "wmo_number": "-99", "abbreviation": "nyjid", "region": "Central", "elevation": "800.0", "start_year": "2014", "owner": "Veðurstofa Íslands" }, "geometry": { "type": "Point", "coordinates": [ -18.073, 64.735 ] } },
{ "type": "Feature", "properties": { "name": "Leggjarbrjótur", "type": "Virtual station", "station_number": "9008", "wmo_number": "-99", "abbreviation": "leggj", "region": "Faxaflói", "elevation": "410.0", "start_year": "2014", "owner": "Veðurstofa Íslands" }, "geometry": { "type": "Point", "coordinates": [ -21.216, 64.34 ] } },
{ "type": "Feature", "properties": { "name": "Snæfellsjökull", "type": "Virtual station", "station_number": "9009", "wmo_number": "-99", "abbreviation": "snfjk", "region": "Faxaflói", "elevation": "1446.0", "start_year": "2014", "owner": "Veðurstofa Íslands" }, "geometry": { "type": "Point", "coordinates": [ -23.775, 64.805 ] } },
{ "type": "Feature", "properties": { "name": "Aðalvík", "type": "Virtual station", "station_number": "9010", "wmo_number": "-99", "abbreviation": "adalv", "region": "West fjords", "elevation": "5.0", "start_year": "2014", "owner": "Veðurstofa Íslands" }, "geometry": { "type": "Point", "coordinates": [ -23.019, 66.369 ] } },
{ "type": "Feature", "properties": { "name": "Arnarnesvegur", "type": "Automated observational station", "station_number": "31109", "wmo_number": "-99", "abbreviation": "arnve", "region": "Faxaflói", "elevation": "116.4000015258789", "start_year": "2016", "owner": "Vegagerðin" }, "geometry": { "type": "Point", "coordinates": [ -21.8366, 64.0888 ] } },
{ "type": "Feature", "properties": { "name": "Miklidalur", "type": "Automated observational station", "station_number": "31122", "wmo_number": "4801", "abbreviation": "mikli", "region": "Breiðafjörður", "elevation": "370.0", "start_year": "2009", "owner": "Vegagerðin" }, "geometry": { "type": "Point", "coordinates": [ -23.8552, 65.5807 ] } },
{ "type": "Feature", "properties": { "name": "Reykjanesbraut", "type": "Automated observational station", "station_number": "31363", "wmo_number": "4822", "abbreviation": "rbrau", "region": "Faxaflói", "elevation": "25.0", "start_year": "1995", "owner": "Vegagerðin" }, "geometry": { "type": "Point", "coordinates": [ -22.2296, 64.0027 ] } },
{ "type": "Feature", "properties": { "name": "Grindavíkurvegur", "type": "Automated observational station", "station_number": "31364", "wmo_number": "4928", "abbreviation": "grveg", "region": "South", "elevation": "57.0", "start_year": "2012", "owner": "Vegagerðin" }, "geometry": { "type": "Point", "coordinates": [ -22.4235, 63.8683 ] } },
{ "type": "Feature", "properties": { "name": "Festarfjall", "type": "Automated observational station", "station_number": "31365", "wmo_number": "4911", "abbreviation": "festf", "region": "South", "elevation": "135.0", "start_year": "2012", "owner": "Vegagerðin" }, "geometry": { "type": "Point", "coordinates": [ -22.3436, 63.8595 ] } },
{ "type": "Feature", "properties": { "name": "Selvogur", "type": "Automated observational station", "station_number": "31380", "wmo_number": "4986", "abbreviation": "selvg", "region": "South", "elevation": "20.0", "start_year": "2012", "owner": "Vegagerðin" }, "geometry": { "type": "Point", "coordinates": [ -21.6959, 63.8456 ] } },
{ "type": "Feature", "properties": { "name": "Þrengsli", "type": "Automated observational station", "station_number": "31387", "wmo_number": "4858", "abbreviation": "treng", "region": "South", "elevation": "260.0", "start_year": "1997", "owner": "Vegagerðin" }, "geometry": { "type": "Point", "coordinates": [ -21.4633, 63.9876 ] } },
{ "type": "Feature", "properties": { "name": "Hellisheiði", "type": "Automated observational station", "station_number": "31392", "wmo_number": "4836", "abbreviation": "hellh", "region": "South", "elevation": "360.0", "start_year": "1992", "owner": "Vegagerðin" }, "geometry": { "type": "Point", "coordinates": [ -21.3424, 64.0188 ] } },
{ "type": "Feature", "properties": { "name": "Ingólfsfjall", "type": "Automated observational station", "station_number": "31399", "wmo_number": "4924", "abbreviation": "ingfj", "region": "South", "elevation": "51.0", "start_year": "2006", "owner": "Vegagerðin" }, "geometry": { "type": "Point", "coordinates": [ -21.0633, 63.9574 ] } },
{ "type": "Feature", "properties": { "name": "Garðabær - Kauptún", "type": "Automated observational station", "station_number": "31475", "wmo_number": "-99", "abbreviation": "kaupt", "region": "Faxaflói", "elevation": "42.0", "start_year": "2017", "owner": "Vegagerðin" }, "geometry": { "type": "Point", "coordinates": [ -21.9029, 64.0797 ] } },
{ "type": "Feature", "properties": { "name": "Sandskeið", "type": "Automated observational station", "station_number": "31488", "wmo_number": "4854", "abbreviation": "sansk", "region": "Faxaflói", "elevation": "180.0", "start_year": "2012", "owner": "Vegagerðin" }, "geometry": { "type": "Point", "coordinates": [ -21.5577, 64.0624 ] } },
{ "type": "Feature", "properties": { "name": "Akrafjall", "type": "Automated observational station", "station_number": "31572", "wmo_number": "4926", "abbreviation": "akrfj", "region": "Faxaflói", "elevation": "37.0", "start_year": "2009", "owner": "Vegagerðin" }, "geometry": { "type": "Point", "coordinates": [ -21.966, 64.3105 ] } },
{ "type": "Feature", "properties": { "name": "Blikdalsá", "type": "Automated observational station", "station_number": "31577", "wmo_number": "-99", "abbreviation": "blikd", "region": "Faxaflói", "elevation": "46.0", "start_year": "2012", "owner": "Vegagerðin" }, "geometry": { "type": "Point", "coordinates": [ -21.8329, 64.2664 ] } },
{ "type": "Feature", "properties": { "name": "Tíðaskarð", "type": "Automated observational station", "station_number": "31578", "wmo_number": "-99", "abbreviation": "tidas", "region": "Faxaflói", "elevation": "65.0", "start_year": "2020", "owner": "Vegagerðin" }, "geometry": { "type": "Point", "coordinates": [ -21.812, 64.287 ] } },
{ "type": "Feature", "properties": { "name": "Kjalarnes", "type": "Automated observational station", "station_number": "31579", "wmo_number": "4848", "abbreviation": "kjaln", "region": "Faxaflói", "elevation": "10.0", "start_year": "1998", "owner": "Vegagerðin" }, "geometry": { "type": "Point", "coordinates": [ -21.7667, 64.2106 ] } },
{ "type": "Feature", "properties": { "name": "Mosfellsheiði", "type": "Automated observational station", "station_number": "31591", "wmo_number": "4918", "abbreviation": "moshe", "region": "Faxaflói", "elevation": "270.0", "start_year": "2012", "owner": "Vegagerðin" }, "geometry": { "type": "Point", "coordinates": [ -21.3448, 64.214 ] } },
{ "type": "Feature", "properties": { "name": "Gjábakki", "type": "Automated observational station", "station_number": "31599", "wmo_number": "-99", "abbreviation": "gjabk", "region": "South", "elevation": "132.0", "start_year": "2012", "owner": "Vegagerðin" }, "geometry": { "type": "Point", "coordinates": [ -21.023, 64.2481 ] } },
{ "type": "Feature", "properties": { "name": "Reykjanesviti", "type": "Automated observational station", "station_number": "31640", "wmo_number": "-99", "abbreviation": "rviti", "region": "Faxaflói", "elevation": "20.0", "start_year": "2021", "owner": "Vegagerðin" }, "geometry": { "type": "Point", "coordinates": [ -22.7043, 63.8156 ] } },
{ "type": "Feature", "properties": { "name": "Hafnarfjall", "type": "Automated observational station", "station_number": "31674", "wmo_number": "4832", "abbreviation": "hfnfj", "region": "Faxaflói", "elevation": "25.0", "start_year": "1995", "owner": "Vegagerðin" }, "geometry": { "type": "Point", "coordinates": [ -21.9603, 64.4755 ] } },
{ "type": "Feature", "properties": { "name": "Hraunsmúli", "type": "Automated observational station", "station_number": "31840", "wmo_number": "4808", "abbreviation": "hramu", "region": "Faxaflói", "elevation": "10.0", "start_year": "1999", "owner": "Vegagerðin" }, "geometry": { "type": "Point", "coordinates": [ -23.1894, 64.8221 ] } },
{ "type": "Feature", "properties": { "name": "Kolás", "type": "Automated observational station", "station_number": "31882", "wmo_number": "4902", "abbreviation": "kolas", "region": "Faxaflói", "elevation": "66.0", "start_year": "2012", "owner": "Vegagerðin" }, "geometry": { "type": "Point", "coordinates": [ -21.6359, 64.6956 ] } },
{ "type": "Feature", "properties": { "name": "Fróðárheiði", "type": "Automated observational station", "station_number": "31931", "wmo_number": "4802", "abbreviation": "frohe", "region": "Breiðafjörður", "elevation": "361.0", "start_year": "1995", "owner": "Vegagerðin" }, "geometry": { "type": "Point", "coordinates": [ -23.4807, 64.8479 ] } },
{ "type": "Feature", "properties": { "name": "Búlandshöfði", "type": "Automated observational station", "station_number": "31932", "wmo_number": "4908", "abbreviation": "bulah", "region": "Breiðafjörður", "elevation": "25.0", "start_year": "2010", "owner": "Vegagerðin" }, "geometry": { "type": "Point", "coordinates": [ -23.5033, 64.9366 ] } },
{ "type": "Feature", "properties": { "name": "Kolgrafafjarðarbrú", "type": "Automated observational station", "station_number": "31942", "wmo_number": "4812", "abbreviation": "kolbr", "region": "Breiðafjörður", "elevation": "3.0", "start_year": "2005", "owner": "Vegagerðin" }, "geometry": { "type": "Point", "coordinates": [ -23.126, 64.9665 ] } },
{ "type": "Feature", "properties": { "name": "Vatnaleið", "type": "Automated observational station", "station_number": "31948", "wmo_number": "4810", "abbreviation": "vatna", "region": "Faxaflói", "elevation": "226.0", "start_year": "2001", "owner": "Vegagerðin" }, "geometry": { "type": "Point", "coordinates": [ -22.8649, 64.9095 ] } },
{ "type": "Feature", "properties": { "name": "Stórholt", "type": "Automated observational station", "station_number": "31950", "wmo_number": "4936", "abbreviation": "sholt", "region": "Breiðafjörður", "elevation": "70.0", "start_year": "2012", "owner": "Vegagerðin" }, "geometry": { "type": "Point", "coordinates": [ -22.8085, 64.9859 ] } },
{ "type": "Feature", "properties": { "name": "Hafursfell", "type": "Automated observational station", "station_number": "31958", "wmo_number": "4909", "abbreviation": "hafur", "region": "Faxaflói", "elevation": "65.0", "start_year": "2009", "owner": "Vegagerðin" }, "geometry": { "type": "Point", "coordinates": [ -22.5328, 64.831 ] } },
{ "type": "Feature", "properties": { "name": "Brattabrekka", "type": "Automated observational station", "station_number": "31985", "wmo_number": "4856", "abbreviation": "bratt", "region": "Breiðafjörður", "elevation": "390.0", "start_year": "1998", "owner": "Vegagerðin" }, "geometry": { "type": "Point", "coordinates": [ -21.5154, 64.8716 ] } },
{ "type": "Feature", "properties": { "name": "Holtavörðuheiði", "type": "Automated observational station", "station_number": "32097", "wmo_number": "4839", "abbreviation": "holta", "region": "North West", "elevation": "370.0", "start_year": "1995", "owner": "Vegagerðin" }, "geometry": { "type": "Point", "coordinates": [ -21.0576, 64.9899 ] } },
{ "type": "Feature", "properties": { "name": "Svínadalur í Dölum", "type": "Automated observational station", "station_number": "32179", "wmo_number": "4817", "abbreviation": "svina", "region": "Breiðafjörður", "elevation": "230.0", "start_year": "2002", "owner": "Vegagerðin" }, "geometry": { "type": "Point", "coordinates": [ -21.7396, 65.3058 ] } },
{ "type": "Feature", "properties": { "name": "Laxárdalsheiði", "type": "Automated observational station", "station_number": "32190", "wmo_number": "4851", "abbreviation": "laxhe", "region": "Breiðafjörður", "elevation": "200.0", "start_year": "2000", "owner": "Vegagerðin" }, "geometry": { "type": "Point", "coordinates": [ -21.3277, 65.2066 ] } },
{ "type": "Feature", "properties": { "name": "Kleifaheiði", "type": "Automated observational station", "station_number": "32224", "wmo_number": "4803", "abbreviation": "klehe", "region": "Breiðafjörður", "elevation": "400.0", "start_year": "1996", "owner": "Vegagerðin" }, "geometry": { "type": "Point", "coordinates": [ -23.7211, 65.5172 ] } },
{ "type": "Feature", "properties": { "name": "Hálfdán", "type": "Automated observational station", "station_number": "32322", "wmo_number": "4805", "abbreviation": "halfd", "region": "Breiðafjörður", "elevation": "525.0", "start_year": "1995", "owner": "Vegagerðin" }, "geometry": { "type": "Point", "coordinates": [ -23.7106, 65.6444 ] } },
{ "type": "Feature", "properties": { "name": "Klettsháls", "type": "Automated observational station", "station_number": "32355", "wmo_number": "4823", "abbreviation": "klett", "region": "Breiðafjörður", "elevation": "330.0", "start_year": "1999", "owner": "Vegagerðin" }, "geometry": { "type": "Point", "coordinates": [ -22.6088, 65.655 ] } },
{ "type": "Feature", "properties": { "name": "Hjallaháls", "type": "Automated observational station", "station_number": "32365", "wmo_number": "4907", "abbreviation": "hjall", "region": "Breiðafjörður", "elevation": "305.0", "start_year": "2012", "owner": "Vegagerðin" }, "geometry": { "type": "Point", "coordinates": [ -22.2461, 65.564 ] } },
{ "type": "Feature", "properties": { "name": "Gillastaðamelar", "type": "Automated observational station", "station_number": "32372", "wmo_number": "-99", "abbreviation": "gilla", "region": "Breiðafjörður", "elevation": "72.0", "start_year": "2009", "owner": "Vegagerðin" }, "geometry": { "type": "Point", "coordinates": [ -22.0234, 65.5277 ] } },
{ "type": "Feature", "properties": { "name": "Þröskuldar", "type": "Automated observational station", "station_number": "32377", "wmo_number": "4916", "abbreviation": "thros", "region": "Breiðafjörður", "elevation": "370.0", "start_year": "2009", "owner": "Vegagerðin" }, "geometry": { "type": "Point", "coordinates": [ -21.833, 65.5524 ] } },
{ "type": "Feature", "properties": { "name": "Ennisháls", "type": "Automated observational station", "station_number": "32390", "wmo_number": "4833", "abbreviation": "ennis", "region": "North West", "elevation": "260.0", "start_year": "1998", "owner": "Vegagerðin" }, "geometry": { "type": "Point", "coordinates": [ -21.329, 65.5724 ] } },
{ "type": "Feature", "properties": { "name": "Steingrímsfjarðarheiði", "type": "Automated observational station", "station_number": "32474", "wmo_number": "4829", "abbreviation": "stehe", "region": "West fjords", "elevation": "440.0", "start_year": "1995", "owner": "Vegagerðin" }, "geometry": { "type": "Point", "coordinates": [ -22.1291, 65.7503 ] } },
{ "type": "Feature", "properties": { "name": "Gemlufallsheiði", "type": "Automated observational station", "station_number": "32533", "wmo_number": "4906", "abbreviation": "gemlu", "region": "West fjords", "elevation": "250.0", "start_year": "2009", "owner": "Vegagerðin" }, "geometry": { "type": "Point", "coordinates": [ -23.4364, 65.94 ] } },
{ "type": "Feature", "properties": { "name": "Botn í Súgandafirði", "type": "Automated observational station", "station_number": "32635", "wmo_number": "4943", "abbreviation": "botis", "region": "West fjords", "elevation": "270.0", "start_year": "2012", "owner": "Vegagerðin" }, "geometry": { "type": "Point", "coordinates": [ -23.3733, 66.0808 ] } },
{ "type": "Feature", "properties": { "name": "Ögur", "type": "Automated observational station", "station_number": "32654", "wmo_number": "4813", "abbreviation": "oguri", "region": "West fjords", "elevation": "40.0", "start_year": "1997", "owner": "Vegagerðin" }, "geometry": { "type": "Point", "coordinates": [ -22.6817, 66.0449 ] } },
{ "type": "Feature", "properties": { "name": "Gauksmýri", "type": "Automated observational station", "station_number": "33204", "wmo_number": "4933", "abbreviation": "gauks", "region": "North West", "elevation": "120.0", "start_year": "2006", "owner": "Vegagerðin" }, "geometry": { "type": "Point", "coordinates": [ -20.804, 65.3444 ] } },
{ "type": "Feature", "properties": { "name": "Öxnadalsheiði", "type": "Automated observational station", "station_number": "33357", "wmo_number": "4859", "abbreviation": "oxnad", "region": "North East", "elevation": "540.0", "start_year": "1995", "owner": "Vegagerðin" }, "geometry": { "type": "Point", "coordinates": [ -18.6987, 65.4676 ] } },
{ "type": "Feature", "properties": { "name": "Mývatnsheiði", "type": "Automated observational station", "station_number": "33394", "wmo_number": "4869", "abbreviation": "myvhe", "region": "North East", "elevation": "350.0", "start_year": "1999", "owner": "Vegagerðin" }, "geometry": { "type": "Point", "coordinates": [ -17.2169, 65.6143 ] } },
{ "type": "Feature", "properties": { "name": "Blönduós Vegagerðarstöð", "type": "Automated observational station", "station_number": "33419", "wmo_number": "4843", "abbreviation": "blond", "region": "North West", "elevation": "40.0", "start_year": "1998", "owner": "Vegagerðin" }, "geometry": { "type": "Point", "coordinates": [ -20.2383, 65.6668 ] } },
{ "type": "Feature", "properties": { "name": "Þverárfjall", "type": "Automated observational station", "station_number": "33424", "wmo_number": "4841", "abbreviation": "tvera", "region": "North West", "elevation": "330.0", "start_year": "2003", "owner": "Vegagerðin" }, "geometry": { "type": "Point", "coordinates": [ -20.0186, 65.7801 ] } },
{ "type": "Feature", "properties": { "name": "Vatnsskarð", "type": "Automated observational station", "station_number": "33431", "wmo_number": "4853", "abbreviation": "vtnsk", "region": "North West", "elevation": "420.0", "start_year": "1996", "owner": "Vegagerðin" }, "geometry": { "type": "Point", "coordinates": [ -19.6945, 65.5085 ] } },
{ "type": "Feature", "properties": { "name": "Kaldakinn", "type": "Automated observational station", "station_number": "33480", "wmo_number": "-99", "abbreviation": "kakin", "region": "North East", "elevation": "120.0", "start_year": "2013", "owner": "Vegagerðin" }, "geometry": { "type": "Point", "coordinates": [ -17.592, 65.7426 ] } },
{ "type": "Feature", "properties": { "name": "Fljótsheiði", "type": "Automated observational station", "station_number": "33487", "wmo_number": "4989", "abbreviation": "flhei", "region": "North East", "elevation": "238.0", "start_year": "2012", "owner": "Vegagerðin" }, "geometry": { "type": "Point", "coordinates": [ -17.5032, 65.697 ] } },
{ "type": "Feature", "properties": { "name": "Hólasandur", "type": "Automated observational station", "station_number": "33495", "wmo_number": "4871", "abbreviation": "holas", "region": "North East", "elevation": "350.0", "start_year": "1996", "owner": "Vegagerðin" }, "geometry": { "type": "Point", "coordinates": [ -17.1057, 65.7374 ] } },
{ "type": "Feature", "properties": { "name": "Hámundarstaðaháls", "type": "Automated observational station", "station_number": "33563", "wmo_number": "4963", "abbreviation": "hamun", "region": "North East", "elevation": "103.0", "start_year": "2008", "owner": "Vegagerðin" }, "geometry": { "type": "Point", "coordinates": [ -18.4593, 65.9518 ] } },
{ "type": "Feature", "properties": { "name": "Víkurskarð", "type": "Automated observational station", "station_number": "33576", "wmo_number": "4865", "abbreviation": "viksk", "region": "North East", "elevation": "325.0", "start_year": "1995", "owner": "Vegagerðin" }, "geometry": { "type": "Point", "coordinates": [ -17.9921, 65.8135 ] } },
{ "type": "Feature", "properties": { "name": "Stafá", "type": "Automated observational station", "station_number": "33643", "wmo_number": "4923", "abbreviation": "stafa", "region": "North West", "elevation": "40.0", "start_year": "2012", "owner": "Vegagerðin" }, "geometry": { "type": "Point", "coordinates": [ -19.2785, 66.0711 ] } },
{ "type": "Feature", "properties": { "name": "Hólshyrna", "type": "Automated observational station", "station_number": "33652", "wmo_number": "-99", "abbreviation": "holsh", "region": "North West", "elevation": "56.0", "start_year": "2020", "owner": "Vegagerðin" }, "geometry": { "type": "Point", "coordinates": [ -18.9023, 66.1317 ] } },
{ "type": "Feature", "properties": { "name": "Héðinsfjörður", "type": "Automated observational station", "station_number": "33654", "wmo_number": "4949", "abbreviation": "hedfj", "region": "North East", "elevation": "20.0", "start_year": "2010", "owner": "Vegagerðin" }, "geometry": { "type": "Point", "coordinates": [ -18.813, 66.1022 ] } },
{ "type": "Feature", "properties": { "name": "Ólafsfjarðarvegur við Sauðanes", "type": "Automated observational station", "station_number": "33661", "wmo_number": "4951", "abbreviation": "olafv", "region": "North East", "elevation": "73.0", "start_year": "2010", "owner": "Vegagerðin" }, "geometry": { "type": "Point", "coordinates": [ -18.5208, 66.0424 ] } },
{ "type": "Feature", "properties": { "name": "Siglufjarðarvegur", "type": "Automated observational station", "station_number": "33750", "wmo_number": "4857", "abbreviation": "siveg", "region": "North West", "elevation": "20.0", "start_year": "1995", "owner": "Vegagerðin" }, "geometry": { "type": "Point", "coordinates": [ -19.0721, 66.129 ] } },
{ "type": "Feature", "properties": { "name": "Siglufjarðarvegur Herkonugil", "type": "Automated observational station", "station_number": "33751", "wmo_number": "4959", "abbreviation": "siher", "region": "North West", "elevation": "66.0", "start_year": "2010", "owner": "Vegagerðin" }, "geometry": { "type": "Point", "coordinates": [ -18.9752, 66.1784 ] } },
{ "type": "Feature", "properties": { "name": "Fagridalur", "type": "Automated observational station", "station_number": "34073", "wmo_number": "4887", "abbreviation": "fagri", "region": "East fjords", "elevation": "350.0", "start_year": "1996", "owner": "Vegagerðin" }, "geometry": { "type": "Point", "coordinates": [ -14.3327, 65.1264 ] } },
{ "type": "Feature", "properties": { "name": "Græfur í Fagradal", "type": "Automated observational station", "station_number": "34081", "wmo_number": "-99", "abbreviation": "grfur", "region": "East fjords", "elevation": "322.0", "start_year": "2017", "owner": "Vegagerðin" }, "geometry": { "type": "Point", "coordinates": [ -14.339, 65.1682 ] } },
{ "type": "Feature", "properties": { "name": "Oddsskarð", "type": "Automated observational station", "station_number": "34087", "wmo_number": "4897", "abbreviation": "oddsk", "region": "East fjords", "elevation": "520.0", "start_year": "1995", "owner": "Vegagerðin" }, "geometry": { "type": "Point", "coordinates": [ -13.9187, 65.0637 ] } },
{ "type": "Feature", "properties": { "name": "Jökuldalur", "type": "Automated observational station", "station_number": "34148", "wmo_number": "4991", "abbreviation": "jodal", "region": "Eastern coastal areas", "elevation": "473.0", "start_year": "2012", "owner": "Vegagerðin" }, "geometry": { "type": "Point", "coordinates": [ -15.2237, 65.3019 ] } },
{ "type": "Feature", "properties": { "name": "Fjarðarheiði", "type": "Automated observational station", "station_number": "34175", "wmo_number": "-99", "abbreviation": "fjahe", "region": "East fjords", "elevation": "600.0", "start_year": "1995", "owner": "Vegagerðin" }, "geometry": { "type": "Point", "coordinates": [ -14.259, 65.2661 ] } },
{ "type": "Feature", "properties": { "name": "Möðrudalsöræfi II", "type": "Automated observational station", "station_number": "34238", "wmo_number": "4881", "abbreviation": "modhe", "region": "North East", "elevation": "550.0", "start_year": "2000", "owner": "Vegagerðin" }, "geometry": { "type": "Point", "coordinates": [ -15.5855, 65.457 ] } },
{ "type": "Feature", "properties": { "name": "Biskupsháls", "type": "Automated observational station", "station_number": "34326", "wmo_number": "4975", "abbreviation": "biskh", "region": "North East", "elevation": "521.0", "start_year": "2007", "owner": "Vegagerðin" }, "geometry": { "type": "Point", "coordinates": [ -16.0113, 65.5583 ] } },
{ "type": "Feature", "properties": { "name": "Vopnafjarðarheiði", "type": "Automated observational station", "station_number": "34348", "wmo_number": "4879", "abbreviation": "vopfh", "region": "Eastern coastal areas", "elevation": "440.0", "start_year": "2012", "owner": "Vegagerðin" }, "geometry": { "type": "Point", "coordinates": [ -15.3158, 65.5947 ] } },
{ "type": "Feature", "properties": { "name": "Vatnsskarð eystra", "type": "Automated observational station", "station_number": "34382", "wmo_number": "4895", "abbreviation": "vtney", "region": "Eastern coastal areas", "elevation": "430.0", "start_year": "1999", "owner": "Vegagerðin" }, "geometry": { "type": "Point", "coordinates": [ -13.9897, 65.5623 ] } },
{ "type": "Feature", "properties": { "name": "Mývatnsöræfi", "type": "Automated observational station", "station_number": "34413", "wmo_number": "4873", "abbreviation": "myvor", "region": "North East", "elevation": "390.0", "start_year": "1998", "owner": "Vegagerðin" }, "geometry": { "type": "Point", "coordinates": [ -16.5006, 65.6576 ] } },
{ "type": "Feature", "properties": { "name": "Hauksstaðir", "type": "Automated observational station", "station_number": "34450", "wmo_number": "4993", "abbreviation": "haust", "region": "Eastern coastal areas", "elevation": "212.0", "start_year": "2012", "owner": "Vegagerðin" }, "geometry": { "type": "Point", "coordinates": [ -15.1652, 65.6571 ] } },
{ "type": "Feature", "properties": { "name": "Sandvíkurheiði", "type": "Automated observational station", "station_number": "34559", "wmo_number": "4883", "abbreviation": "sanhe", "region": "Eastern coastal areas", "elevation": "275.0", "start_year": "1997", "owner": "Vegagerðin" }, "geometry": { "type": "Point", "coordinates": [ -14.8253, 65.8914 ] } },
{ "type": "Feature", "properties": { "name": "Tjörnes - Gerðibrekka", "type": "Automated observational station", "station_number": "34700", "wmo_number": "4837", "abbreviation": "tjnes", "region": "North East", "elevation": "93.0", "start_year": "2004", "owner": "Vegagerðin" }, "geometry": { "type": "Point", "coordinates": [ -16.9752, 66.1487 ] } },
{ "type": "Feature", "properties": { "name": "Hófaskarð", "type": "Automated observational station", "station_number": "34732", "wmo_number": "4973", "abbreviation": "hofas", "region": "North East", "elevation": "217.0", "start_year": "2010", "owner": "Vegagerðin" }, "geometry": { "type": "Point", "coordinates": [ -15.8933, 66.2984 ] } },
{ "type": "Feature", "properties": { "name": "Hálsar", "type": "Automated observational station", "station_number": "34733", "wmo_number": "4875", "abbreviation": "halsr", "region": "North East", "elevation": "180.0", "start_year": "1995", "owner": "Vegagerðin" }, "geometry": { "type": "Point", "coordinates": [ -15.8161, 66.2532 ] } },
{ "type": "Feature", "properties": { "name": "Borgarhöfn", "type": "Automated observational station", "station_number": "35116", "wmo_number": "-99", "abbreviation": "borgh", "region": "South East", "elevation": "20.0", "start_year": "2019", "owner": "Vegagerðin" }, "geometry": { "type": "Point", "coordinates": [ -15.8145, 64.1848 ] } },
{ "type": "Feature", "properties": { "name": "Öræfi", "type": "Automated observational station", "station_number": "35305", "wmo_number": "4878", "abbreviation": "orafi", "region": "South East", "elevation": "75.0", "start_year": "1995", "owner": "Vegagerðin" }, "geometry": { "type": "Point", "coordinates": [ -16.7959, 63.9387 ] } },
{ "type": "Feature", "properties": { "name": "Kvísker Vegagerðarstöð", "type": "Automated observational station", "station_number": "35315", "wmo_number": "4886", "abbreviation": "kvisk", "region": "South East", "elevation": "30.0", "start_year": "2002", "owner": "Vegagerðin" }, "geometry": { "type": "Point", "coordinates": [ -16.4244, 63.9596 ] } },
{ "type": "Feature", "properties": { "name": "Hvalnes", "type": "Automated observational station", "station_number": "35666", "wmo_number": "4892", "abbreviation": "hvaln", "region": "East fjords", "elevation": "20.0", "start_year": "2000", "owner": "Vegagerðin" }, "geometry": { "type": "Point", "coordinates": [ -14.5393, 64.4074 ] } },
{ "type": "Feature", "properties": { "name": "Hamarsfjörður", "type": "Automated observational station", "station_number": "35769", "wmo_number": "4992", "abbreviation": "hamaf", "region": "East fjords", "elevation": "19.0", "start_year": "2010", "owner": "Vegagerðin" }, "geometry": { "type": "Point", "coordinates": [ -14.4527, 64.6558 ] } },
{ "type": "Feature", "properties": { "name": "Streiti", "type": "Automated observational station", "station_number": "35880", "wmo_number": "4994", "abbreviation": "strei", "region": "East fjords", "elevation": "10.0", "start_year": "2008", "owner": "Vegagerðin" }, "geometry": { "type": "Point", "coordinates": [ -14.0363, 64.7199 ] } },
{ "type": "Feature", "properties": { "name": "Kambaskriður", "type": "Automated observational station", "station_number": "35884", "wmo_number": "4990", "abbreviation": "kambs", "region": "East fjords", "elevation": "37.0", "start_year": "2010", "owner": "Vegagerðin" }, "geometry": { "type": "Point", "coordinates": [ -13.8901, 64.7981 ] } },
{ "type": "Feature", "properties": { "name": "Öxi", "type": "Automated observational station", "station_number": "35963", "wmo_number": "4976", "abbreviation": "oxixx", "region": "East fjords", "elevation": "531.0", "start_year": "2006", "owner": "Vegagerðin" }, "geometry": { "type": "Point", "coordinates": [ -14.6573, 64.8257 ] } },
{ "type": "Feature", "properties": { "name": "Breiðdalsheiði", "type": "Automated observational station", "station_number": "35965", "wmo_number": "4894", "abbreviation": "brehe", "region": "East fjords", "elevation": "480.0", "start_year": "1997", "owner": "Vegagerðin" }, "geometry": { "type": "Point", "coordinates": [ -14.6034, 64.9068 ] } },
{ "type": "Feature", "properties": { "name": "Víkurgerði", "type": "Automated observational station", "station_number": "35985", "wmo_number": "-99", "abbreviation": "vikge", "region": "East fjords", "elevation": "40.0", "start_year": "2018", "owner": "Vegagerðin" }, "geometry": { "type": "Point", "coordinates": [ -13.8547, 64.8956 ] } },
{ "type": "Feature", "properties": { "name": "Reynisfjall", "type": "Automated observational station", "station_number": "36049", "wmo_number": "4956", "abbreviation": "reyni", "region": "South East", "elevation": "125.0", "start_year": "2009", "owner": "Vegagerðin" }, "geometry": { "type": "Point", "coordinates": [ -19.0378, 63.4521 ] } },
{ "type": "Feature", "properties": { "name": "Markarfljót", "type": "Automated observational station", "station_number": "36122", "wmo_number": "4958", "abbreviation": "marka", "region": "South", "elevation": "42.0", "start_year": "2010", "owner": "Vegagerðin" }, "geometry": { "type": "Point", "coordinates": [ -20.0285, 63.6216 ] } },
{ "type": "Feature", "properties": { "name": "Hvammur", "type": "Automated observational station", "station_number": "36127", "wmo_number": "4870", "abbreviation": "hvamm", "region": "South", "elevation": "20.0", "start_year": "2001", "owner": "Vegagerðin" }, "geometry": { "type": "Point", "coordinates": [ -19.9016, 63.5784 ] } },
{ "type": "Feature", "properties": { "name": "Steinar", "type": "Automated observational station", "station_number": "36132", "wmo_number": "4868", "abbreviation": "stein", "region": "South", "elevation": "20.0", "start_year": "1997", "owner": "Vegagerðin" }, "geometry": { "type": "Point", "coordinates": [ -19.6906, 63.5429 ] } },
{ "type": "Feature", "properties": { "name": "Mýrdalssandur", "type": "Automated observational station", "station_number": "36156", "wmo_number": "4860", "abbreviation": "mysan", "region": "South East", "elevation": "35.0", "start_year": "1995", "owner": "Vegagerðin" }, "geometry": { "type": "Point", "coordinates": [ -18.6044, 63.4661 ] } },
{ "type": "Feature", "properties": { "name": "Eldhraun", "type": "Automated observational station", "station_number": "36270", "wmo_number": "-99", "abbreviation": "eldhr", "region": "South East", "elevation": "90.0", "start_year": "2014", "owner": "Vegagerðin" }, "geometry": { "type": "Point", "coordinates": [ -18.1977, 63.7338 ] } },
{ "type": "Feature", "properties": { "name": "Þjórsárbrú", "type": "Automated observational station", "station_number": "36308", "wmo_number": "4940", "abbreviation": "tjors", "region": "South", "elevation": "49.0", "start_year": "2004", "owner": "Vegagerðin" }, "geometry": { "type": "Point", "coordinates": [ -20.6653, 63.9306 ] } },
{ "type": "Feature", "properties": { "name": "Lómagnúpur", "type": "Automated observational station", "station_number": "36386", "wmo_number": "4874", "abbreviation": "lomag", "region": "South East", "elevation": "55.0", "start_year": "1999", "owner": "Vegagerðin" }, "geometry": { "type": "Point", "coordinates": [ -17.555, 63.9575 ] } },
{ "type": "Feature", "properties": { "name": "Gígjukvísl", "type": "Automated observational station", "station_number": "36391", "wmo_number": "4876", "abbreviation": "gigju", "region": "South East", "elevation": "58.0", "start_year": "2014", "owner": "Vegagerðin" }, "geometry": { "type": "Point", "coordinates": [ -17.3503, 63.9362 ] } },
{ "type": "Feature", "properties": { "name": "Skálholt", "type": "Automated observational station", "station_number": "36411", "wmo_number": "4866", "abbreviation": "skalh", "region": "South", "elevation": "60.0", "start_year": "1998", "owner": "Vegagerðin" }, "geometry": { "type": "Point", "coordinates": [ -20.5308, 64.1323 ] } },
{ "type": "Feature", "properties": { "name": "Bræðratunguvegur", "type": "Automated observational station", "station_number": "36415", "wmo_number": "4960", "abbreviation": "brtve", "region": "South", "elevation": "66.0", "start_year": "2012", "owner": "Vegagerðin" }, "geometry": { "type": "Point", "coordinates": [ -20.3678, 64.1575 ] } },
{ "type": "Feature", "properties": { "name": "Lyngdalsheiði", "type": "Automated observational station", "station_number": "36504", "wmo_number": "4968", "abbreviation": "lyngh", "region": "South", "elevation": "215.0", "start_year": "2010", "owner": "Vegagerðin" }, "geometry": { "type": "Point", "coordinates": [ -20.8062, 64.2018 ] } },
{ "type": "Feature", "properties": { "name": "Gullfoss", "type": "Automated observational station", "station_number": "36519", "wmo_number": "4842", "abbreviation": "gullf", "region": "South", "elevation": "191.0", "start_year": "2001", "owner": "Vegagerðin" }, "geometry": { "type": "Point", "coordinates": [ -20.2119, 64.3077 ] } }
]
}
